Serie_Match_AssId;Datum;Klockslag;SerieId;SerieNamn;SerieKönId;ÅldersKatId;MatchId;MatchStatus;MatchUrl;HemmalagNamn;HemmalagLogoUrl;HemmalagAssId;BortalagNamn;BortalagLogoUrl;BortalagAssId;MatchResultat;ArenaNamn;ArenaKluster;ArenaKlusterAdress;SäkerMapping;LS_Lat;LS_Long;LS_admin;LS_sport
7;2026-05-01;09:00;133654;Pojkar 2015(11 år) Grupp L Vår;2;2;6604254;5;/go-to/?fmid=6604254;Espanyol Göteborg IF Vit;https://staticcdn.svenskfotboll.se/img/teamssm/13418.png;7;Älvsborg FF Vit;https://staticcdn.svenskfotboll.se/img/teamssm/9622.png;7;-1--1;Kviberg 1 konstgräs;Kviberg;Luftvärnsvägen, 415 06 Göteborg;Y;57.737550;12.038540;Göteborg;football
8;2026-05-01;09:30;137161;P12år Blå;2;2;6737798;5;/go-to/?fmid=6737798;IFK Fjärås;https://staticcdn.svenskfotboll.se/img/teamssm/9511.png;8;Tölö IF Gul;https://staticcdn.svenskfotboll.se/img/teamssm/10015.png;8;-1--1;Ögärdets IP C;Ögärdets IP;Klövervägen 2A, 439 71 Fjärås;Y;57.459731;12.184603;Halland;football
21;2026-05-01;10:00;137615;Flickor Div 7 Trollhättan;3;2;6783728;5;/go-to/?fmid=6783728;Bjärke;https://staticcdn.svenskfotboll.se/img/teamssm/10213.png;21;Alingsås KIK Vit;https://staticcdn.svenskfotboll.se/img/teamssm/8345.png;21;-1--1;Brynet;Brynet;Prästvägen 31, 466 94 Sollebrunn;Y;58.145235;12.577816;Västergötland;football
21;2026-05-01;10:00;137526;Pojkar Div 9 Borås;2;2;6785747;5;/go-to/?fmid=6785747;Brämhults IK Svart;https://staticcdn.svenskfotboll.se/img/teamssm/8727.png;21;Fristads GoIF Vit;https://staticcdn.svenskfotboll.se/img/teamssm/11342.png;21;-1--1;Brämhults IP C;Brämhults IP;Gamla Brämhultsvägen, Hässleholmen, Borås, Borås kommun, Västra Götalands län, 507 44, Sverige;Y;57.726346;12.970209;Västergötland;football
21;2026-05-01;10:00;136751;Flickor Div 5 Lidköping;3;3;6725330;4;/go-to/?fmid=6725330;Våmbs IF Grön;https://staticcdn.svenskfotboll.se/img/teamssm/8628.png;21;Vinninga AIF;https://staticcdn.svenskfotboll.se/img/teamssm/8630.png;21;3-1;Claesborgs A-plan;Claesborgs;Claesborgsvägen, Skövde, Skövde kommun, Västra Götalands län, 541 54, Sverige;Y;58.373893;13.820335;Västergötland;football
21;2026-05-01;10:00;137626;Flickor Div 8 Skövde;3;2;6784184;5;/go-to/?fmid=6784184;Rackeby IK Vit;https://staticcdn.svenskfotboll.se/img/teamssm/8665.png;21;Våmbs IF;https://staticcdn.svenskfotboll.se/img/teamssm/8628.png;21;-1--1;Degeberg IP 7-manna;Degeberg IP;Degeberg, Rackeby distrikt, Lidköpings kommun, Västra Götalands län, Sverige;Y;58.579488;13.011541;Västergötland;football
7;2026-05-01;10:00;133630;Pojkar 2014(12 år) Grupp K Vår;2;2;6600467;5;/go-to/?fmid=6600467;IF Mölndal Fotboll vit;https://staticcdn.svenskfotboll.se/img/teamssm/9569.png;7;Dalen/Krokslätts FF Blå;https://staticcdn.svenskfotboll.se/img/teamssm/9632.png;7;-1--1;Frejaplan 12 K.Gräs;Frejaplan;Fiskargatan, 431 43 Mölndal;Y;57.656471;12.005152;Göteborg;football
21;2026-05-01;10:00;137579;Pojkar Div 13 Dalsjöfors;2;2;6778107;5;/go-to/?fmid=6778107;Sjömarkens IF Vit;https://staticcdn.svenskfotboll.se/img/teamssm/10325.png;21;Sandareds IF Vit;https://staticcdn.svenskfotboll.se/img/teamssm/10368.png;21;-1--1;Idrottsgården B-plan;Idrottsgården;Hagavägen 16, 518 40 Sjömarken;Y;57.718988;12.841432;Västergötland;football
7;2026-05-01;10:00;133647;Pojkar 2015(11 år) Grupp E Vår;2;2;6602987;5;/go-to/?fmid=6602987;Azalea BK Vit;https://staticcdn.svenskfotboll.se/img/teamssm/7817.png;7;IF Mölndal Fotboll Gul;https://staticcdn.svenskfotboll.se/img/teamssm/9569.png;7;-1--1;Majvallen 1 Konstgräs;Majvallen;Ekedalsgatan 20, 414 68 Göteborg;Y;57.689370;11.936171;Göteborg;football
21;2026-05-01;10:00;137595;Flickor Div 6 Alingsås;3;2;6782045;5;/go-to/?fmid=6782045;Alingsås KIK Blå;https://staticcdn.svenskfotboll.se/img/teamssm/8345.png;21;Östadkulle SK;https://staticcdn.svenskfotboll.se/img/teamssm/9743.png;21;-1--1;Noltorpsvallen A;Noltorpsvallen;Noltorpsvallen, Mjörnstigen, Noltorp, Alingsås distrikt, Alingsås, Alingsås kommun, Västra Götalands län, 441 56, Sverige;Y;57.936860;12.515810;Västergötland;football
21;2026-05-01;10:00;136666;Pojkar Div 6 Falköping;2;3;6721761;4;/go-to/?fmid=6721761;Råda BK Grön;https://staticcdn.svenskfotboll.se/img/teamssm/10400.png;21;IFK Falköping FF Grön;https://staticcdn.svenskfotboll.se/img/teamssm/7190.png;21;1-5;Rådavallen;Rådavallen;Rådavallen, Vattenledningsvägen, Råda, Råda distrikt, Lidköpings kommun, Västra Götalands län, 531 59, Sverige;Y;58.499337;13.102725;Västergötland;football
21;2026-05-01;10:00;137530;Pojkar Div 9 Lidköping;2;2;6774108;5;/go-to/?fmid=6774108;Råda BK Vit;https://staticcdn.svenskfotboll.se/img/teamssm/10400.png;21;Skultorps IF Svart;https://staticcdn.svenskfotboll.se/img/teamssm/10298.png;21;-1--1;Rådavallen;Rådavallen;Rådavallen, Vattenledningsvägen, Råda, Råda distrikt, Lidköpings kommun, Västra Götalands län, 531 59, Sverige;Y;58.499337;13.102725;Västergötland;football
8;2026-05-01;10:00;137161;P12år Blå;2;2;6737786;5;/go-to/?fmid=6737786;Snöstorp Nyhem FF Röd;https://staticcdn.svenskfotboll.se/img/teamssm/7704.png;8;IS Halmia röd;https://staticcdn.svenskfotboll.se/img/teamssm/9519.png;8;-1--1;Skedalaheds IP 3;Skedalaheds IP;Skedalahed 114, 305 93 Halmstad;Y;56.686715;12.945246;Halland;football
8;2026-05-01;10:00;137642;P14år Röd Södra;2;3;6781406;4;/go-to/?fmid=6781406;Snöstorp Nyhem FF;https://staticcdn.svenskfotboll.se/img/teamssm/7704.png;8;HGH FC Blå;https://staticcdn.svenskfotboll.se/img/teamssm/9516.png;8;2-2;Skedalaheds IP 5;Skedalaheds IP;Skedalahed 114, 305 93 Halmstad;Y;56.686715;12.945246;Halland;football
7;2026-05-01;10:00;133753;Flickor 2012-2013 Liten 9M9 Lätt Gr. A Vår;3;3;6584231;4;/go-to/?fmid=6584231;BK Häcken Gul;https://staticcdn.svenskfotboll.se/img/teamssm/11080.png;7;Finlandia Pallo AIF F 13 Blå;https://staticcdn.svenskfotboll.se/img/teamssm/7939.png;7;7-2;Slättadamm 21 konstgräs;Slättadamm;Slättadammsgatan 6, 417 25 Göteborg;Y;57.730565;11.927705;Göteborg;football
21;2026-05-01;10:00;137581;Pojkar Div 13 Götene;2;2;6778900;5;/go-to/?fmid=6778900;Mariestads BK Röd;https://staticcdn.svenskfotboll.se/img/teamssm/8679.png;21;IFK Mariestad Vit;https://staticcdn.svenskfotboll.se/img/teamssm/8286.png;21;-1--1;Vänershofs IP B;Vänershofs IP;Östra Järnvägsgatan 59, 542 33 Mariestad;Y;58.704735;13.837044;Västergötland;football
8;2026-05-01;10:00;137492;F14år vit;3;3;6778706;4;/go-to/?fmid=6778706;HGH FC Vit;https://staticcdn.svenskfotboll.se/img/teamssm/9516.png;8;Halmstads BK;https://staticcdn.svenskfotboll.se/img/teamssm/9517.png;8;4-1;Wegeli IP 1;Wegeli IP;Klövervägen 1C, 305 71 Haverdal;Y;56.730269;12.667817;Halland;football
7;2026-05-01;10:00;133826;Flickor 2017(9 år) Lerum+Partille+Öster Vår;3;2;6612829;5;/go-to/?fmid=6612829;Lunden Överås BK Svart;https://staticcdn.svenskfotboll.se/img/teamssm/10705.png;7;Floda BoIF Vit;https://staticcdn.svenskfotboll.se/img/teamssm/11366.png;7;-1--1;Överåsvallen 11 Konstgräs;Överåsvallen;Skogshyddegatan 16, 412 74 Göteborg;Y;57.707876;12.002439;Göteborg;football
21;2026-05-01;10:30;136665;Pojkar Div 6 Dalsjöfors;2;3;6721666;4;/go-to/?fmid=6721666;Brämhults IK Vit;https://staticcdn.svenskfotboll.se/img/teamssm/8727.png;21;IFK Örby TÄFF;https://staticcdn.svenskfotboll.se/img/teamssm/10940.png;21;4-3;Brämhults IP B;Brämhults IP;Gamla Brämhultsvägen, Hässleholmen, Borås, Borås kommun, Västra Götalands län, 507 44, Sverige;Y;57.726346;12.970209;Västergötland;football
7;2026-05-01;10:30;133605;Pojkar 2013(13 år) Vår Lätt Grupp E;2;3;6643409;4;/go-to/?fmid=6643409;Marieholm IK Svart;https://staticcdn.svenskfotboll.se/img/teamssm/13640.png;7;Ytterby IS Röd;https://staticcdn.svenskfotboll.se/img/teamssm/9832.png;7;5-3;Lövgärdesplan 21 Konstgräs;Lövgärdesplan;Svarte Filips Gata 10, 424 44 Angered;Y;57.814492;12.031817;Göteborg;football
7;2026-05-01;10:30;133668;Pojkar 2016(10 år) Grupp C Vår;2;2;6606268;5;/go-to/?fmid=6606268;Fässbergs IF svart 2016;https://staticcdn.svenskfotboll.se/img/teamssm/9620.png;7;Kungsladugårds BK Röd;https://staticcdn.svenskfotboll.se/img/teamssm/10799.png;7;-1--1;Rävekärrsplan 11;Rävekärrsplan;Fågelbergsgatan 6, 431 33 Mölndal;Y;57.643218;12.034367;Göteborg;football
7;2026-05-01;10:30;133668;Pojkar 2016(10 år) Grupp C Vår;2;2;6606269;5;/go-to/?fmid=6606269;Fässbergs IF vit 2016;https://staticcdn.svenskfotboll.se/img/teamssm/9620.png;7;Kungsladugårds BK Vit;https://staticcdn.svenskfotboll.se/img/teamssm/10799.png;7;-1--1;Rävekärrsplan 11;Rävekärrsplan;Fågelbergsgatan 6, 431 33 Mölndal;Y;57.643218;12.034367;Göteborg;football
7;2026-05-01;10:30;133603;Pojkar 2013(13 år) Vår Lätt Grupp C;2;3;6643180;4;/go-to/?fmid=6643180;Ytterby IS Vit;https://staticcdn.svenskfotboll.se/img/teamssm/9832.png;7;Utbynäs SK Blå;https://staticcdn.svenskfotboll.se/img/teamssm/9983.png;7;9-8;Ytterns IP 32;Ytterns IP;Ytterby, 442 40 Kungälv;Y;57.869280;11.935196;Göteborg;football
21;2026-05-01;10:30;137536;Pojkar Div 9 Tranemo;2;2;6775043;5;/go-to/?fmid=6775043;IFK Örby;https://staticcdn.svenskfotboll.se/img/teamssm/10940.png;21;Gånghester/Målsryd Gul;https://staticcdn.svenskfotboll.se/img/teamssm/8709.png;21;-1--1;Örby IP B;Örby IP;Öresjövägen 17, 511 31 Örby;Y;57.475963;12.707193;Västergötland;football
21;2026-05-01;10:30;137601;Flickor Div 6 Kinna;3;2;6782267;5;/go-to/?fmid=6782267;IFK Örby;https://staticcdn.svenskfotboll.se/img/teamssm/10940.png;21;Ubbhult/Hällingsjö/Hyssna;https://staticcdn.svenskfotboll.se/img/teamssm/8636.png;21;-1--1;Örby IP B;Örby IP;Öresjövägen 17, 511 31 Örby;Y;57.475963;12.707193;Västergötland;football
21;2026-05-01;11:00;137628;Flickor Div 8 Trollhättan;3;2;6784237;5;/go-to/?fmid=6784237;Lödöse Nygård IK;https://staticcdn.svenskfotboll.se/img/teamssm/8670.png;21;Alingsås KIK Blå;https://staticcdn.svenskfotboll.se/img/teamssm/8345.png;21;-1--1;Alevi;Alevi;Idrottsvägen 7, 463 96 Nygård;Y;58.056423;12.216389;Västergötland;football
28;2026-05-01;11:00;135694;BDFF P13-14 Röd;2;3;6648333;4;/go-to/?fmid=6648333;Eds FF P födda 2012;https://staticcdn.svenskfotboll.se/img/teamssm/11441.png;28;Grohed/Ljungskile P2012 röd;https://staticcdn.svenskfotboll.se/img/teamssm/11268.png;28;2-1;Bergslätt;Bergslätt;Bergslätt, Ed, Dals-Eds kommun, Västra Götalands län, 668 31, Sverige;Y;58.910123;11.912789;Bohuslän-Dalsland;football
21;2026-05-01;11:00;136741;Pojkar Div 8 Vänersborg;2;3;6724551;4;/go-to/?fmid=6724551;Essungaalliansen Rosa;https://staticcdn.svenskfotboll.se/img/teamssm/11338.png;21;Trollhättans IF;https://staticcdn.svenskfotboll.se/img/teamssm/10051.png;21;6-3;Brovallen;Brovallen;Brovallen 401, 465 31 Nossebro;Y;58.183989;12.718675;Västergötland;football
8;2026-05-01;11:00;137636;F13år Blå Norra;3;3;6777471;4;/go-to/?fmid=6777471;Frillesås FF;https://staticcdn.svenskfotboll.se/img/teamssm/9524.png;8;Särö Kullavik IF Blå;https://staticcdn.svenskfotboll.se/img/teamssm/9496.png;8;8-7;Frillesås IP B;Frillesås IP;Rya industriväg 39, 439 62 Frillesås;Y;57.322466;12.184797;Halland;football
28;2026-05-01;11:00;136364;BDFF P13-14 Grön Södra;2;3;6653116;4;/go-to/?fmid=6653116;Morlanda GoIF P13/14;https://staticcdn.svenskfotboll.se/img/teamssm/10617.png;28;Lysekils AIK Pojkar 2013;https://staticcdn.svenskfotboll.se/img/teamssm/10699.png;28;3-10;Glimmaråsen Ellös;Glimmaråsen;Glimsåsvägen 17, 474 32 Ellös;Y;58.176125;11.483238;Bohuslän-Dalsland;football
7;2026-05-01;11:00;133824;Flickor 2017(9 år) Centrum+Härryda+Mölndal+Väster Grupp A Vår;3;2;6613316;5;/go-to/?fmid=6613316;Mossens BK F-17 - Vit;https://staticcdn.svenskfotboll.se/img/teamssm/9571.png;7;Landvetter IF 2003 F2017 Vit;https://staticcdn.svenskfotboll.se/img/teamssm/6789.png;7;-1--1;Guldheden Södra - Lilla Plan;Guldheden Södra;Gibraltargatan 41, 412 58 Göteborg;Y;57.681136;11.982964;Göteborg;football
8;2026-05-01;11:00;136435;F10år Norr;3;2;6737639;5;/go-to/?fmid=6737639;SRG Himledalen;https://staticcdn.svenskfotboll.se/img/teamssm/10288.png;8;Tofta GIF;https://staticcdn.svenskfotboll.se/img/teamssm/10084.png;8;-1--1;Gunnevi IP B;Gunnevi IP;Gunnevivägen, Rolfstorp, Varbergs kommun, Hallands län, 432 97, Sverige;Y;57.148719;12.459212;Halland;football
28;2026-05-01;11:00;137158;BDFF F10-12 Blå Sydvästra;3;2;6736194;5;/go-to/?fmid=6736194;Henåns IF F 14/15;https://staticcdn.svenskfotboll.se/img/teamssm/8507.png;28;Vallens IF F2015;https://staticcdn.svenskfotboll.se/img/teamssm/8496.png;28;-1--1;Ivars Färg Arena;Hällevi Idrottsplats;Buavägen 145, 473 96 Henån;Y;58.226031;11.666115;Bohuslän-Dalsland;football
8;2026-05-01;11:00;136435;F10år Norr;3;2;6737640;5;/go-to/?fmid=6737640;Trönninge BK;https://staticcdn.svenskfotboll.se/img/teamssm/9485.png;8;Varbergs BoIS FC Grön;https://staticcdn.svenskfotboll.se/img/teamssm/7701.png;8;-1--1;Håstens IP;Håstens IP;Hästens idrottsplats, Ölandsgatan, Nedregården, Varberg, Varbergs kommun, Hallands län, 432 36, Sverige;Y;57.117456;12.285361;Halland;football
7;2026-05-01;11:00;133750;Flickor 2012-2013 Stor 9M9 Medel Gr. C Vår;3;3;6584284;4;/go-to/?fmid=6584284;Landvetter IF 2003 F2012 Svart;https://staticcdn.svenskfotboll.se/img/teamssm/6789.png;7;Älvsborg FF F2013 Vit;https://staticcdn.svenskfotboll.se/img/teamssm/9622.png;7;2-2;Landvetter IP B-plan;Landvetter IP;Tahultsvägen 60, 438 35 Landvetter;Y;57.702382;12.203031;Göteborg;football
21;2026-05-01;11:00;136520;Pojkar Div 5 U15 Västergötland;2;3;6709457;4;/go-to/?fmid=6709457;Ulricehamns IFK Blå;https://staticcdn.svenskfotboll.se/img/teamssm/7738.png;21;Gerdskens BK Gul;https://staticcdn.svenskfotboll.se/img/teamssm/8712.png;21;1-3;Lassalyckan B-plan;Lassalyckan;Lassalyckan, Ulricehamns distrikt, Ulricehamn, Ulricehamns kommun, Västra Götalands län, 523 33, Sverige;Y;57.785778;13.436509;Västergötland;football
21;2026-05-01;11:00;137613;Flickor Div 7 Nossebro;3;2;6783513;5;/go-to/?fmid=6783513;IK Gauthiod;https://staticcdn.svenskfotboll.se/img/teamssm/11304.png;21;Skoftebyns IF Svart;https://staticcdn.svenskfotboll.se/img/teamssm/8653.png;21;-1--1;Lunnevi IP 7-manna;Lunnevi IP;Tengenevägen 47635, 467 35 Grästrop;Y;58.330104;12.682735;Västergötland;football
21;2026-05-01;11:00;136514;Pojkar Div 4 Trollhättan;2;3;6708971;4;/go-to/?fmid=6708971;Trollhättans FK Vit;https://staticcdn.svenskfotboll.se/img/teamssm/8642.png;21;Vallen/Stenungsund;https://staticcdn.svenskfotboll.se/img/teamssm/8496.png;28;1-4;Lyrfågel konstgräs;Lyrfågel;Hagtornsstigen 18, 461 43 Trollhättan;Y;57.673465;11.891683;Västergötland;football
21;2026-05-01;11:00;136664;Pojkar Div 6 Borås;2;3;6721575;4;/go-to/?fmid=6721575;Alingsås IF FF Vit;https://staticcdn.svenskfotboll.se/img/teamssm/12595.png;21;Hajoms IF;https://staticcdn.svenskfotboll.se/img/teamssm/8706.png;21;5-1;Mjörnvallen, B-plan;Mjörnvallen;Mjörnvallen, Mjörnstrandsvägen, Stadsskogen, Alingsås distrikt, Alingsås, Alingsås kommun, Västra Götalands län, 441 44, Sverige;Y;57.930328;12.504176;Västergötland;football
21;2026-05-01;11:00;137531;Pojkar Div 9 Lilla Edet;2;2;6774225;5;/go-to/?fmid=6774225;Alingsås IF FF Grön;https://staticcdn.svenskfotboll.se/img/teamssm/12595.png;21;Skepplanda BTK Gul;https://staticcdn.svenskfotboll.se/img/teamssm/10314.png;21;-1--1;Mjörnvallen, D-plan;Mjörnvallen;Mjörnvallen, Mjörnstrandsvägen, Stadsskogen, Alingsås distrikt, Alingsås, Alingsås kommun, Västra Götalands län, 441 44, Sverige;Y;57.930328;12.504176;Västergötland;football
8;2026-05-01;11:00;137658;P13år Vit;2;3;6780853;4;/go-to/?fmid=6780853;Varbergs BoIS FC Svart;https://staticcdn.svenskfotboll.se/img/teamssm/7701.png;8;Halmstads BK;https://staticcdn.svenskfotboll.se/img/teamssm/9517.png;8;5-2;Påskbergsvallen C;Påskbergsvallen;Påskbergsvallen, Kattegattsvägen, Mariedal, Sörse, Varberg, Varbergs kommun, Hallands län, 432 43, Sverige;Y;57.097747;12.265223;Halland;football
21;2026-05-01;11:00;136737;Pojkar Div 8 Skövde;2;3;6724004;4;/go-to/?fmid=6724004;Skara FC Röd;https://staticcdn.svenskfotboll.se/img/teamssm/7451.png;21;Tibro AIK FK Gul;https://staticcdn.svenskfotboll.se/img/teamssm/7283.png;21;6-3;Sparbanken Arena D Konstgräs;Sparbanken Arena;Sparbanken Arena, E 20, Vilans fritidsområde, Skara domkyrkodistrikt, Skara, Skara kommun, Västra Götalands län, 532 37, Sverige;Y;58.388258;13.461198;Västergötland;football
21;2026-05-01;11:00;136753;Flickor Div 5 Skövde;3;3;6725887;4;/go-to/?fmid=6725887;Skara FC Röd;https://staticcdn.svenskfotboll.se/img/teamssm/7451.png;21;Mariestads BoIS FF Röd;https://staticcdn.svenskfotboll.se/img/teamssm/7380.png;21;3-1;Sparbanken Arena D;Sparbanken Arena;Sparbanken Arena, E 20, Vilans fritidsområde, Skara domkyrkodistrikt, Skara, Skara kommun, Västra Götalands län, 532 37, Sverige;Y;58.388258;13.461198;Västergötland;football
28;2026-05-01;11:00;135692;BDFF P15-19 Grön Västra;2;3;6644242;4;/go-to/?fmid=6644242;IFK Strömstad 2;https://staticcdn.svenskfotboll.se/img/teamssm/10963.png;28;Henåns IF P11/12;https://staticcdn.svenskfotboll.se/img/teamssm/8507.png;28;6-1;Strömsvallen Konstgräsplan;Strömsvallen;Strömsvallen, Karlsgatan, Södertull, Kristorp, Strömstad, Strömstads kommun, Västra Götalands län, 452 33, Sverige;Y;58.939742;11.192071;Bohuslän-Dalsland;football
7;2026-05-01;11:00;133689;Pojkar 2017(9 år) Ale+Kungälv Vår;2;2;6616336;5;/go-to/?fmid=6616336;Surte IS FK Svart;https://staticcdn.svenskfotboll.se/img/teamssm/12036.png;7;IK Kongahälla Röd;https://staticcdn.svenskfotboll.se/img/teamssm/9590.png;7;-1--1;Surte IP 21;Surte IP;Idrottsvägen 4, 445 55 Surte;Y;57.836279;12.017412;Göteborg;football
21;2026-05-01;11:00;137587;Pojkar Div 13 Skara;2;2;6779527;5;/go-to/?fmid=6779527;Vara SK;https://staticcdn.svenskfotboll.se/img/teamssm/9966.png;21;Råda BK Svart;https://staticcdn.svenskfotboll.se/img/teamssm/10400.png;21;-1--1;Torsvallen C-plan;Torsvallen;Torsvallen, Vallgatan, Lassagården, Vara distrikt, Vara, Vara kommun, Västra Götalands län, 534 32, Sverige;Y;58.264705;12.961627;Västergötland;football
21;2026-05-01;11:00;136745;Flickor Div 4 Skövde;3;3;6724937;4;/go-to/?fmid=6724937;Töreboda IK;https://staticcdn.svenskfotboll.se/img/teamssm/10013.png;21;Guldkroken FK;https://staticcdn.svenskfotboll.se/img/teamssm/13425.png;21;3-2;Töreshov A-plan;Töreshov;Idrottsvägen 29, 545 34 Töreboda;Y;58.707707;14.150274;Västergötland;football
21;2026-05-01;11:00;137532;Pojkar Div 9 Mariestad;2;2;6774341;5;/go-to/?fmid=6774341;Jula BK Blå;https://staticcdn.svenskfotboll.se/img/teamssm/8693.png;21;Källby IF;https://staticcdn.svenskfotboll.se/img/teamssm/10783.png;21;-1--1;Ullervads IP;Ullervads IP;Ullervads handelsträdgård, Fors, Ullervad, Mariestads kommun, Västra Götalands län, Sverige;Y;58.666417;13.854058;Västergötland;football
21;2026-05-01;11:00;136668;Pojkar Div 6 Skövde;2;3;6721942;4;/go-to/?fmid=6721942;Tidaholms GoIF;https://staticcdn.svenskfotboll.se/img/teamssm/10095.png;21;Tibro AIK FK;https://staticcdn.svenskfotboll.se/img/teamssm/7283.png;21;11-0;Ulvesborg B-plan;Ulvesborg;Ulvesborg, Rudbecksgatan, Tidaholm, Tidaholms kommun, Västra Götalands län, 522 32, Sverige;Y;58.185144;13.952054;Västergötland;football
21;2026-05-01;11:00;137535;Pojkar Div 9 Tibro;2;2;6774908;5;/go-to/?fmid=6774908;Tidaholms GoIF;https://staticcdn.svenskfotboll.se/img/teamssm/10095.png;21;IF Tymer;https://staticcdn.svenskfotboll.se/img/teamssm/10025.png;21;-1--1;Ulvesborg C1;Ulvesborg;Ulvesborg, Rudbecksgatan, Tidaholm, Tidaholms kommun, Västra Götalands län, 522 32, Sverige;Y;58.185144;13.952054;Västergötland;football
28;2026-05-01;11:00;136233;BDFF P10-12 Svart;2;2;6734524;5;/go-to/?fmid=6734524;Herrestads AIF P2015 Orange;https://staticcdn.svenskfotboll.se/img/teamssm/11149.png;28;Grebbestads IF P14;https://staticcdn.svenskfotboll.se/img/teamssm/11276.png;28;-1--1;Undavallen Konstgräs;Undavallen;Stan 101, 451 94 Uddevalla;Y;58.336300;11.826976;Bohuslän-Dalsland;football
8;2026-05-01;11:00;136531;P10år Röd Norr;2;2;6734597;5;/go-to/?fmid=6734597;Valinge IF;https://staticcdn.svenskfotboll.se/img/teamssm/9975.png;8;SRG Himledalen;https://staticcdn.svenskfotboll.se/img/teamssm/10288.png;8;-1--1;Valinge IP;Valinge IP;Valinge, Varbergs kommun, Hallands län, 432 92, Sverige;Y;57.171081;12.381483;Halland;football
7;2026-05-01;11:00;133591;Pojkar 2012(14 år) Lätt Grupp D;2;3;6620883;4;/go-to/?fmid=6620883;Nödinge SK Fotboll Vit;https://staticcdn.svenskfotboll.se/img/teamssm/10503.png;7;IFK Hindås;https://staticcdn.svenskfotboll.se/img/teamssm/11008.png;7;6-1;Vimmervi 2 Konstgräs;Vimmervi;Gamla Kilandavägen 62, 449 36 Nödinge;Y;57.886226;12.080329;Göteborg;football
21;2026-05-01;11:00;137569;Pojkar Div 11 Vänersborg;2;2;6777494;5;/go-to/?fmid=6777494;Vänersborgs IF Röd;https://staticcdn.svenskfotboll.se/img/teamssm/8627.png;21;Trollhättans IF;https://staticcdn.svenskfotboll.se/img/teamssm/10051.png;21;-1--1;Vänersvallen Syd;Vänersvallen;Gropbrovägen 4, 462 56 Vänersborg;Y;58.367442;12.323966;Västergötland;football
21;2026-05-01;11:00;137615;Flickor Div 7 Trollhättan;3;2;6783732;5;/go-to/?fmid=6783732;Vänersborgs IF Röd;https://staticcdn.svenskfotboll.se/img/teamssm/8627.png;21;Långareds BoIS;https://staticcdn.svenskfotboll.se/img/teamssm/10698.png;21;-1--1;Vänersvallen Syd;Vänersvallen;Gropbrovägen 4, 462 56 Vänersborg;Y;58.367442;12.323966;Västergötland;football
8;2026-05-01;11:00;137618;F14år Röd;3;3;6778751;4;/go-to/?fmid=6778751;Åsa IF svart;https://staticcdn.svenskfotboll.se/img/teamssm/9807.png;8;SRG Himledalen;https://staticcdn.svenskfotboll.se/img/teamssm/10288.png;8;2-2;Åsa C;Åsa Centrum;Bollvägen 107-113, 439 54 Åsa;Y;57.353889;12.115352;Halland;football
8;2026-05-01;11:00;137645;P14år Röd Norra;2;3;6781434;4;/go-to/?fmid=6781434;Lilla Träslövs FF Vit;https://staticcdn.svenskfotboll.se/img/teamssm/9502.png;8;Veddige BK;https://staticcdn.svenskfotboll.se/img/teamssm/9481.png;8;3-9;Östervi 11;Östervi;Östervi Idrottsplats, Engelbrektsgatan, Karlberg, Prästkullen, Varberg, Varbergs kommun, Hallands län, 432 31, Sverige;Y;57.104636;12.282999;Halland;football
7;2026-05-01;11:00;133826;Flickor 2017(9 år) Lerum+Partille+Öster Vår;3;2;6612832;5;/go-to/?fmid=6612832;Lunden Överås BK Vit;https://staticcdn.svenskfotboll.se/img/teamssm/10705.png;7;Floda BoIF Svart;https://staticcdn.svenskfotboll.se/img/teamssm/11366.png;7;-1--1;Överåsvallen 11 Konstgräs;Överåsvallen;Skogshyddegatan 16, 412 74 Göteborg;Y;57.707876;12.002439;Göteborg;football
21;2026-05-01;11:30;136732;Pojkar Div 8 Dalsjöfors;2;3;6723548;4;/go-to/?fmid=6723548;Sjömarken/Sandared Vit;https://staticcdn.svenskfotboll.se/img/teamssm/10325.png;21;Vårgårda IK Röd;https://staticcdn.svenskfotboll.se/img/teamssm/9882.png;21;4-2;Idrottsgården A plan;Idrottsgården;Hagavägen 16, 518 40 Sjömarken;Y;57.718988;12.841432;Västergötland;football
1;2026-05-01;11:30;129333;P19 Div.1 2026 Västra Götaland;2;3;6585868;4;/go-to/?fmid=6585868;Kinna IF;https://staticcdn.svenskfotboll.se/img/teamssm/10844.png;21;Herrestads AIF;https://staticcdn.svenskfotboll.se/img/teamssm/11149.png;28;2-0;Kunskapens Hus, konstgräs;Kunskapens Hus;Kunskapens hus, Varbergsvägen, Skene, Kinna, Marks kommun, Västra Götalands län, 511 56, Sverige;Y;57.497192;12.667653;1;football
21;2026-05-01;11:30;136664;Pojkar Div 6 Borås;2;3;6721574;4;/go-to/?fmid=6721574;Sandared/Sjömarken Vit;https://staticcdn.svenskfotboll.se/img/teamssm/10368.png;21;Fristad/Sparsör/Borgstena Grön;https://staticcdn.svenskfotboll.se/img/teamssm/11342.png;21;2-5;Sandevi B-plan;Sandevi;Sandevi, Alingsåsvägen, Torp, Sandared, Borås kommun, Västra Götalands län, 518 33, Sverige;Y;57.719494;12.788878;Västergötland;football
8;2026-05-01;11:30;137160;P12år Vit;2;2;6729387;5;/go-to/?fmid=6729387;Snöstorp Nyhem FF;https://staticcdn.svenskfotboll.se/img/teamssm/7704.png;8;IF Leikin svart;https://staticcdn.svenskfotboll.se/img/teamssm/9503.png;8;-1--1;Skedalaheds IP 3;Skedalaheds IP;Skedalahed 114, 305 93 Halmstad;Y;56.686715;12.945246;Halland;football
7;2026-05-01;11:45;133576;Pojkar 2011(15 år) Medel Grupp B;2;3;6607833;4;/go-to/?fmid=6607833;Örgryte IS Fotboll Blå;https://staticcdn.svenskfotboll.se/img/teamssm/12910.png;7;Älvsborg FF Blå;https://staticcdn.svenskfotboll.se/img/teamssm/9622.png;7;2-5;ÖIS-gården 2;ÖIS-gården;Korndalsvägen 3, 412 76 Göteborg;Y;57.675233;12.028495;Göteborg;football
7;2026-05-01;12:00;133593;Pojkar 2013(13 år) Vår Svår Grupp A;2;3;6631089;4;/go-to/?fmid=6631089;Kungsladugårds BK Blå;https://staticcdn.svenskfotboll.se/img/teamssm/10799.png;7;BK Häcken Svart;https://staticcdn.svenskfotboll.se/img/teamssm/11080.png;7;7-2;Apelsinplan 22 Konstgräs;Apelsinplan;Apelsingatan 6, 426 54 Västra Frölunda;Y;57.655054;11.882940;Göteborg;football
21;2026-05-01;12:00;136669;Pojkar Div 6 Trollhättan;2;3;6722036;4;/go-to/?fmid=6722036;IK Oddevold;https://staticcdn.svenskfotboll.se/img/teamssm/10500.png;28;Skoftebyns IF Vit;https://staticcdn.svenskfotboll.se/img/teamssm/8653.png;21;7-1;Arwidsroplanen;Arwidsroplanen;Fossums Kvarnväg 4, 451 34 Uddevalla;Y;58.348766;11.975349;Västergötland;football
7;2026-05-01;12:00;133653;Pojkar 2015(11 år) Grupp K Vår;2;2;6604128;5;/go-to/?fmid=6604128;Lerums IS P15 lila 1;https://staticcdn.svenskfotboll.se/img/teamssm/10756.png;7;Lekstorps IF P15 Grön;https://staticcdn.svenskfotboll.se/img/teamssm/10760.png;7;-1--1;Aspevallen B-plan;Aspevallen;Strandvägen 7, 443 31 Lerum;Y;57.768427;12.253218;Göteborg;football
7;2026-05-01;12:00;133603;Pojkar 2013(13 år) Vår Lätt Grupp C;2;3;6643179;4;/go-to/?fmid=6643179;GoldCoast FC Svart;https://staticcdn.svenskfotboll.se/img/teamssm/13374.png;7;Öckerö IF Vinröd 2013;https://staticcdn.svenskfotboll.se/img/teamssm/9774.png;7;3-3;Bergsjövallen 21 Konstgräs;Bergsjövallen;Sjustjärnan 20, 415 51 Göteborg;Y;57.750377;12.057010;Göteborg;football
7;2026-05-01;12:00;133825;Flickor 2017(9 år) Centrum+Härryda+Mölndal+Väster Grupp B Vår;3;2;6613624;5;/go-to/?fmid=6613624;Hovås Billdal IF F2017 ROSA;https://staticcdn.svenskfotboll.se/img/teamssm/11109.png;7;Lindome GIF Svartvit;https://staticcdn.svenskfotboll.se/img/teamssm/10741.png;7;-1--1;Billdalsvallen 3B;Billdalsvallen;Påls väg, 427 36 Göteborg;Y;57.588232;11.949791;Göteborg;football
7;2026-05-01;12:00;133693;Pojkar 2017(9 år) Centrum+Härryda+Mölndal+Väster Grupp B Vår;2;2;6619541;5;/go-to/?fmid=6619541;Hovås Billdal IF Lag 4 Blå;https://staticcdn.svenskfotboll.se/img/teamssm/11109.png;7;Askims IK P2017 U9 Svart;https://staticcdn.svenskfotboll.se/img/teamssm/11617.png;7;-1--1;Billdalsvallen 3A;Billdalsvallen;Påls väg, 427 36 Göteborg;Y;57.588232;11.949791;Göteborg;football
7;2026-05-01;12:00;133585;Pojkar 2012(14 år) Lätt Grupp A;2;3;6621871;4;/go-to/?fmid=6621871;Brämaregårdens FC;https://staticcdn.svenskfotboll.se/img/teamssm/12563.png;7;Jonsereds IF P2012 BLÅ;https://staticcdn.svenskfotboll.se/img/teamssm/9595.png;7;3-3;Blidvädersplan;Blidvädersplan;Ovädersgatan 1A, 418 34 Göteborg;Y;57.707987;11.887592;Göteborg;football
21;2026-05-01;12:00;136737;Pojkar Div 8 Skövde;2;3;6724001;4;/go-to/?fmid=6724001;Våmbs IF Grön;https://staticcdn.svenskfotboll.se/img/teamssm/8628.png;21;IFK Skövde FK Blå;https://staticcdn.svenskfotboll.se/img/teamssm/7848.png;21;6-4;Claesborgs A-plan;Claesborgs;Claesborgsvägen, Skövde, Skövde kommun, Västra Götalands län, 541 54, Sverige;Y;58.373893;13.820335;Västergötland;football
7;2026-05-01;12:00;133699;Pojkar 2017(9 år) Lerum+Partille+Öster Grupp B Vår;2;2;6617847;5;/go-to/?fmid=6617847;Floda BoIF P17 Vit;https://staticcdn.svenskfotboll.se/img/teamssm/11366.png;7;Lerums IS P17V 1;https://staticcdn.svenskfotboll.se/img/teamssm/10756.png;7;-1--1;Flodala IP 4 FRAMTIDEN;Flodala IP;Skallsjö Prästväg 14, 448 31 Floda;Y;57.795503;12.346356;Göteborg;football
7;2026-05-01;12:00;136376;Pojkar 2012(14 år) Grund;2;3;6621629;4;/go-to/?fmid=6621629;Öjersjö IF Vit;https://staticcdn.svenskfotboll.se/img/teamssm/7552.png;7;Lerums IS Lila;https://staticcdn.svenskfotboll.se/img/teamssm/10756.png;7;2-1;Furulundsplan 1 Konstgräs;Furulundsplan;Furulundsplan, Timmervägen, 433 47 Partille;Y;57.727253;12.129716;Göteborg;football
7;2026-05-01;12:00;133674;Pojkar 2016(10 år) Grupp I Vår;2;2;6609518;5;/go-to/?fmid=6609518;Götaholms BK P2016;https://staticcdn.svenskfotboll.se/img/teamssm/9615.png;7;Marieholm IK Svart;https://staticcdn.svenskfotboll.se/img/teamssm/13640.png;7;-1--1;Gamlestadsvallen 22 Konstgräs;Gamlestadsvallen;Lars Kaggsgatan 24, 415 04 Göteborg;Y;57.734308;12.013832;Göteborg;football
7;2026-05-01;12:00;133117;Träningsmatcher Ungdomar Göteborg Pojk;2;3;6823399;3;/go-to/?fmid=6823399;Götaholms BK P2016;https://staticcdn.svenskfotboll.se/img/teamssm/9615.png;7;Marieholm IK P16 Svart;https://staticcdn.svenskfotboll.se/img/teamssm/13640.png;7;0-0;Gamlestadsvallen 21 Konstgräs;Gamlestadsvallen;Lars Kaggsgatan 24, 415 04 Göteborg;Y;57.734308;12.013832;Göteborg;football
7;2026-05-01;12:00;133582;Pojkar 2012(14 år) Svår Grupp B;2;3;6622236;4;/go-to/?fmid=6622236;Sandarna BK Röd;https://staticcdn.svenskfotboll.se/img/teamssm/10367.png;7;Kärra KIF Blå;https://staticcdn.svenskfotboll.se/img/teamssm/10780.png;7;6-1;Gröna Vallen 1;Gröna Vallen;Gröna Vallen, Svanebäcksgatan 16, 414 71 Göteborg;Y;57.687961;11.917564;Göteborg;football
7;2026-05-01;12:00;133648;Pojkar 2015(11 år) Grupp F Vår;2;2;6603025;5;/go-to/?fmid=6603025;Mossens BK P15 Grön;https://staticcdn.svenskfotboll.se/img/teamssm/9571.png;7;Hovås Billdal IF P2015 Svart;https://staticcdn.svenskfotboll.se/img/teamssm/11109.png;7;-1--1;Guldheden Södra 11 Konstgräs;Guldheden Södra;Gibraltargatan 41, 412 58 Göteborg;Y;57.681136;11.982964;Göteborg;football
7;2026-05-01;12:00;133824;Flickor 2017(9 år) Centrum+Härryda+Mölndal+Väster Grupp A Vår;3;2;6613328;5;/go-to/?fmid=6613328;Mossens BK F-17 - Svart;https://staticcdn.svenskfotboll.se/img/teamssm/9571.png;7;Landvetter IF 2003 F2017 Svart;https://staticcdn.svenskfotboll.se/img/teamssm/6789.png;7;-1--1;Guldheden Södra - Lilla Plan;Guldheden Södra;Gibraltargatan 41, 412 58 Göteborg;Y;57.681136;11.982964;Göteborg;football
7;2026-05-01;12:00;133825;Flickor 2017(9 år) Centrum+Härryda+Mölndal+Väster Grupp B Vår;3;2;6613593;5;/go-to/?fmid=6613593;GAIS F9 Födda 2017;https://staticcdn.svenskfotboll.se/img/teamssm/9614.png;7;Älvsborg FF F2017 VIT;https://staticcdn.svenskfotboll.se/img/teamssm/9622.png;7;-1--1;Heden 5 Konstgräs 7M7;Heden;Heden, 411 38 Göteborg;Y;57.702854;11.978368;Göteborg;football
7;2026-05-01;12:00;133699;Pojkar 2017(9 år) Lerum+Partille+Öster Grupp B Vår;2;2;6617844;5;/go-to/?fmid=6617844;Gunnilse IS Svart;https://staticcdn.svenskfotboll.se/img/teamssm/11237.png;7;Lekstorps IF P17 Röd;https://staticcdn.svenskfotboll.se/img/teamssm/10760.png;7;-1--1;Hjällbovallen 21 konstgräs;Hjällbovallen;Knattens väg 12, 424 32 Angered;Y;57.777950;12.017062;Göteborg;football
7;2026-05-01;12:00;133602;Pojkar 2013(13 år) Vår Lätt Grupp B;2;3;6643132;4;/go-to/?fmid=6643132;Hovås Billdal IF Vit;https://staticcdn.svenskfotboll.se/img/teamssm/11109.png;7;Hermansby IF;https://staticcdn.svenskfotboll.se/img/teamssm/11150.png;7;4-6;Hovås Billdal Arena 11 Konstgräs;Hovås Billdal Arena;Kruniusvägen, 427 36 Billdal;Y;57.589555;11.946909;Göteborg;football
7;2026-05-01;12:00;133674;Pojkar 2016(10 år) Grupp I Vår;2;2;6609517;5;/go-to/?fmid=6609517;Qviding FIF Vinröd 3;https://staticcdn.svenskfotboll.se/img/teamssm/8089.png;7;Björndammens BK;https://staticcdn.svenskfotboll.se/img/teamssm/9638.png;7;-1--1;Härlanda 21;Härlanda Park;Härlanda Park 6B, 416 52 Göteborg;Y;57.716492;12.017055;Göteborg;football
7;2026-05-01;12:00;133601;Pojkar 2013(13 år) Vår Lätt Grupp A;2;3;6643004;4;/go-to/?fmid=6643004;Qviding FIF 3;https://staticcdn.svenskfotboll.se/img/teamssm/8089.png;7;Kärra KIF Gul;https://staticcdn.svenskfotboll.se/img/teamssm/10780.png;7;5-8;Härlanda 11;Härlanda Park;Härlanda Park 6B, 416 52 Göteborg;Y;57.716492;12.017055;Göteborg;football
7;2026-05-01;12:00;133668;Pojkar 2016(10 år) Grupp C Vår;2;2;6606274;5;/go-to/?fmid=6606274;Askims IK P2016 U10 Grå;https://staticcdn.svenskfotboll.se/img/teamssm/11617.png;7;IF Väster Svart;https://staticcdn.svenskfotboll.se/img/teamssm/9861.png;7;-1--1;Kobbegården 3 Konstgräs 7M7;Kobbegården;Stora Åvägen 1, 436 34 Askim;Y;57.639723;11.944383;Göteborg;football
7;2026-05-01;12:00;133586;Pojkar 2012(14 år) Svår Grupp A;2;3;6622148;4;/go-to/?fmid=6622148;Askims IK P2012 U14 Röd;https://staticcdn.svenskfotboll.se/img/teamssm/11617.png;7;Västra Frölunda IF Grön;https://staticcdn.svenskfotboll.se/img/teamssm/9853.png;7;3-6;Kobbegården 1 Konstgräs;Kobbegården;Stora Åvägen 1, 436 34 Askim;Y;57.639723;11.944383;Göteborg;football
7;2026-05-01;12:00;133666;Pojkar 2016(10 år) Grupp A Vår;2;2;6605718;5;/go-to/?fmid=6605718;GoldCoast FC gul;https://staticcdn.svenskfotboll.se/img/teamssm/13374.png;7;Älvängens IK P16 blå;https://staticcdn.svenskfotboll.se/img/teamssm/9783.png;7;-1--1;Kortedalavallen 3;Kortedalavallen;Kortedala Idrottsväg 13, 415 37 Göteborg;Y;57.751830;12.040079;Göteborg;football
7;2026-05-01;12:00;133826;Flickor 2017(9 år) Lerum+Partille+Öster Vår;3;2;6612939;5;/go-to/?fmid=6612939;Qviding FIF 1;https://staticcdn.svenskfotboll.se/img/teamssm/8089.png;7;Utbynäs SK Gul;https://staticcdn.svenskfotboll.se/img/teamssm/9983.png;7;-1--1;Kviberg 1 konstgräs;Kviberg;Luftvärnsvägen, 415 06 Göteborg;Y;57.737550;12.038540;Göteborg;football
21;2026-05-01;12:00;135577;Herrar, Div 5 Sydöstra;2;4;6569908;4;/go-to/?fmid=6569908;Tvärred-Vegby FC;https://staticcdn.svenskfotboll.se/img/teamssm/12098.png;21;Tomtens IF;https://staticcdn.svenskfotboll.se/img/teamssm/8646.png;21;5-0;Lassalyckan A-plan konstgräs;Lassalyckan;Lassalyckan, Ulricehamns distrikt, Ulricehamn, Ulricehamns kommun, Västra Götalands län, 523 33, Sverige;Y;57.785778;13.436509;Västergötland;football
7;2026-05-01;12:00;133822;Flickor 2017(9 år) Hisingen Vår;3;2;6612336;5;/go-to/?fmid=6612336;Backatorp IF F17;https://staticcdn.svenskfotboll.se/img/teamssm/11915.png;7;Hjuviks AIK F2017 Vit;https://staticcdn.svenskfotboll.se/img/teamssm/8330.png;7;-1--1;Lillhagsplan 11;Lillhagsplan;Lillhagsvägen, 422 57 Hisings Backa;Y;57.763300;11.956822;Göteborg;football
7;2026-05-01;12:00;133694;Pojkar 2017(9 år) Centrum+Härryda+Mölndal+Väster Grupp C Vår;2;2;6619834;5;/go-to/?fmid=6619834;Lindome GIF P2017 1;https://staticcdn.svenskfotboll.se/img/teamssm/10741.png;7;Dalen/Krokslätts FF Gul;https://staticcdn.svenskfotboll.se/img/teamssm/9632.png;7;-1--1;Lindevi 5;Lindevi IP;Hällesåkersvägen 5, 437 91 Lindome;Y;57.585286;12.108877;Göteborg;football
7;2026-05-01;12:00;133694;Pojkar 2017(9 år) Centrum+Härryda+Mölndal+Väster Grupp C Vår;2;2;6619835;5;/go-to/?fmid=6619835;Lindome GIF P2017 2;https://staticcdn.svenskfotboll.se/img/teamssm/10741.png;7;Dalen/Krokslätts FF Blå;https://staticcdn.svenskfotboll.se/img/teamssm/9632.png;7;-1--1;Lindevi 6;Lindevi IP;Hällesåkersvägen 5, 437 91 Lindome;Y;57.585286;12.108877;Göteborg;football
7;2026-05-01;12:00;133697;Pojkar 2017(9 år) Lerum+Partille+Öster Grupp A Vår;2;2;6617301;5;/go-to/?fmid=6617301;Marieholm IK Svart;https://staticcdn.svenskfotboll.se/img/teamssm/13640.png;7;Lekstorps IF P17 Blå;https://staticcdn.svenskfotboll.se/img/teamssm/10760.png;7;-1--1;Lövgärdesplan 1 Gräs;Lövgärdesplan;Svarte Filips Gata 10, 424 44 Angered;Y;57.814492;12.031817;Göteborg;football
7;2026-05-01;12:00;136274;Pojkar 2016(10 år) Grupp L Vår;2;2;6605476;5;/go-to/?fmid=6605476;Azalea BK P2016 Svart;https://staticcdn.svenskfotboll.se/img/teamssm/7817.png;7;Espanyol Göteborg IF Vit;https://staticcdn.svenskfotboll.se/img/teamssm/13418.png;7;-1--1;Majvallen 12 Konstgräs;Majvallen;Ekedalsgatan 20, 414 68 Göteborg;Y;57.689370;11.936171;Göteborg;football
21;2026-05-01;12:00;137606;Flickor Div 6 Vänersborg;3;2;6783042;5;/go-to/?fmid=6783042;Alingsås KIK Vit;https://staticcdn.svenskfotboll.se/img/teamssm/8345.png;21;Vårgårda IK;https://staticcdn.svenskfotboll.se/img/teamssm/9882.png;21;-1--1;Noltorpsvallen A;Noltorpsvallen;Noltorpsvallen, Mjörnstigen, Noltorp, Alingsås distrikt, Alingsås, Alingsås kommun, Västra Götalands län, 441 56, Sverige;Y;57.936860;12.515810;Västergötland;football
7;2026-05-01;12:00;133586;Pojkar 2012(14 år) Svår Grupp A;2;3;6622147;4;/go-to/?fmid=6622147;Utsiktens BK;https://staticcdn.svenskfotboll.se/img/teamssm/9982.png;7;BK Häcken P14A;https://staticcdn.svenskfotboll.se/img/teamssm/11080.png;7;2-1;Ruddalen Konstgräs 2;Ruddalen;Anna Östvägen 8, 426 68 Västra Frölunda;Y;57.664609;11.909282;Göteborg;football
28;2026-05-01;12:00;135695;BDFF P13-14 Blå Norra;2;3;6652787;4;/go-to/?fmid=6652787;Melleruds IF;https://staticcdn.svenskfotboll.se/img/teamssm/10635.png;28;Kroppefjälls IF-Åsebro IF P 13 Lag 2;https://staticcdn.svenskfotboll.se/img/teamssm/10811.png;28;5-3;Dalslands Sparbanks Arena;Rådavallen;ÄNGGATAN 2, 464 30 Mellerud;Y;58.704288;12.457587;Bohuslän-Dalsland;football
7;2026-05-01;12:00;133116;Träningsmatcher Ungdomar Göteborg Flick;3;3;6805890;4;/go-to/?fmid=6805890;BK Häcken F2013 lag SVART;https://staticcdn.svenskfotboll.se/img/teamssm/11080.png;7;Stenungsunds IF F13;https://staticcdn.svenskfotboll.se/img/teamssm/10236.png;28;8-1;Slättadamm 2 konstgräs;Slättadamm;Slättadammsgatan 6, 417 25 Göteborg;Y;57.730565;11.927705;Göteborg;football
1;2026-05-01;12:00;133301;F17 div. 1 2026 - Götaland Västra;3;3;6595634;4;/go-to/?fmid=6595634;BK Astrio;https://staticcdn.svenskfotboll.se/img/teamssm/9529.png;8;Varbergs BoIS FC;https://staticcdn.svenskfotboll.se/img/teamssm/7701.png;8;0-1;Söndrums IP B;Söndrums IP;Söndrums Idrottsplats, Bäckagårdsvägen, Pålsbo, Bäckagård, Halmstad, Halmstads kommun, Hallands län, 302 91, Sverige;Y;56.670271;12.797138;1;football
7;2026-05-01;12:00;133690;Pojkar 2017(9 år) Hisingen + Öckerö Grupp A Vår;2;2;6616533;5;/go-to/?fmid=6616533;Torslanda IK Blå;https://staticcdn.svenskfotboll.se/img/teamssm/10068.png;7;Brämaregårdens FC Orange;https://staticcdn.svenskfotboll.se/img/teamssm/12563.png;7;-1--1;Torslandavallen 41 Gräs;Torslandavallen;Torslanda Idrottsväg 17, 423 32 Torslanda;Y;57.718280;11.757490;Göteborg;football
8;2026-05-01;12:00;137261;Nivå 3 Mellersta Södra Herrar;2;4;6733841;4;/go-to/?fmid=6733841;HGH FC;https://staticcdn.svenskfotboll.se/img/teamssm/9516.png;8;Trönninge IF;https://staticcdn.svenskfotboll.se/img/teamssm/9484.png;8;3-2;Tranevall;Tranevall;Tranevall, Tranevallsvägen, Harplinge, Halmstads kommun, Hallands län, 305 60, Sverige;Y;56.743210;12.734066;Halland;football
7;2026-05-01;12:00;133673;Pojkar 2016(10 år) Grupp H Vår;2;2;6609081;5;/go-to/?fmid=6609081;Sävedalens IF Grön;https://staticcdn.svenskfotboll.se/img/teamssm/9545.png;7;Lerums IS Vit 1;https://staticcdn.svenskfotboll.se/img/teamssm/10756.png;7;-1--1;Vallhamra 22 Konstgräs;Vallhamra IP;Ugglumsleden 48, 433 64 Sävedalen;Y;57.724452;12.079253;Göteborg;football
7;2026-05-01;12:00;133826;Flickor 2017(9 år) Lerum+Partille+Öster Vår;3;2;6612855;5;/go-to/?fmid=6612855;Sävedalens IF F2017 Tiger;https://staticcdn.svenskfotboll.se/img/teamssm/9545.png;7;Lerums IS F2017 3;https://staticcdn.svenskfotboll.se/img/teamssm/10756.png;7;-1--1;Vallhamra Skola;Vallhamra Skola;Långåkern 7, 433 65 Sävedalen;Y;57.720856;12.076205;Göteborg;football
8;2026-05-01;12:00;137667;F13år Röd Norra;3;3;6777388;4;/go-to/?fmid=6777388;Veddige BK Derome;https://staticcdn.svenskfotboll.se/img/teamssm/9481.png;8;Apel99;https://staticcdn.svenskfotboll.se/img/teamssm/9474.png;8;12-0;Veddige IP A;Veddige IP;Veddige idrottsplats, 41, Veddige, Varbergs kommun, Hallands län, 432 66, Sverige;Y;57.264497;12.334629;Halland;football
21;2026-05-01;12:00;136666;Pojkar Div 6 Falköping;2;3;6721764;4;/go-to/?fmid=6721764;Mariestads BK Blå;https://staticcdn.svenskfotboll.se/img/teamssm/8679.png;21;IFK Skövde FK Svart;https://staticcdn.svenskfotboll.se/img/teamssm/7848.png;21;0-6;Vänershofs IP B;Vänershofs IP;Östra Järnvägsgatan 59, 542 33 Mariestad;Y;58.704735;13.837044;Västergötland;football
7;2026-05-01;12:00;133576;Pojkar 2011(15 år) Medel Grupp B;2;3;6607835;4;/go-to/?fmid=6607835;Fässbergs IF Vit;https://staticcdn.svenskfotboll.se/img/teamssm/9620.png;7;Lerums IS;https://staticcdn.svenskfotboll.se/img/teamssm/10756.png;7;10-1;Åbyvallen 2 Konstgräs;Åbyvallen;Idrottsvägen 5, 431 62 Mölndal;Y;57.645363;12.002082;Göteborg;football
7;2026-05-01;12:00;133825;Flickor 2017(9 år) Centrum+Härryda+Mölndal+Väster Grupp B Vår;3;2;6613573;5;/go-to/?fmid=6613573;Jitex BK Lila;https://staticcdn.svenskfotboll.se/img/teamssm/7516.png;7;Mossens BK F-17 - Gul;https://staticcdn.svenskfotboll.se/img/teamssm/9571.png;7;-1--1;Åbyvallen 8 Konstgräs 7M7;Åbyvallen;Idrottsvägen 5, 431 62 Mölndal;Y;57.645363;12.002082;Göteborg;football
7;2026-05-01;12:00;133825;Flickor 2017(9 år) Centrum+Härryda+Mölndal+Väster Grupp B Vår;3;2;6613611;5;/go-to/?fmid=6613611;IF Mölndal Fotboll Blå;https://staticcdn.svenskfotboll.se/img/teamssm/9569.png;7;Landvetter IF 2003 F2017 Röd;https://staticcdn.svenskfotboll.se/img/teamssm/6789.png;7;-1--1;Åbyvallen 9 Konstgräs 7M7;Åbyvallen;Idrottsvägen 5, 431 62 Mölndal;Y;57.645363;12.002082;Göteborg;football
7;2026-05-01;12:00;133577;Pojkar 2011(15 år) Svår Grupp A;2;3;6608206;4;/go-to/?fmid=6608206;Näsets SK P2011 1;https://staticcdn.svenskfotboll.se/img/teamssm/10510.png;7;Ytterby IS Vit;https://staticcdn.svenskfotboll.se/img/teamssm/9832.png;7;1-2;Näset Yuncture Arena;Åkeredsvallen;Bergsätersgatan 1, 421 66 Västra Frölunda;Y;57.631456;11.900982;Göteborg;football
7;2026-05-01;12:00;133744;Flickor 2010-2011 Lätt Grupp A;3;3;6584977;4;/go-to/?fmid=6584977;Öjersjö IF;https://staticcdn.svenskfotboll.se/img/teamssm/7552.png;7;Utbynäs SK Blå;https://staticcdn.svenskfotboll.se/img/teamssm/9983.png;7;8-3;Öjersjö IP 1 Konstgräs;Öjersjö IP;Tallmossevägen 9, 433 50 Öjersjö;Y;57.702889;12.149245;Göteborg;football
7;2026-05-01;12:00;133693;Pojkar 2017(9 år) Centrum+Härryda+Mölndal+Väster Grupp B Vår;2;2;6619539;5;/go-to/?fmid=6619539;IF Väster P2017 Orange;https://staticcdn.svenskfotboll.se/img/teamssm/9861.png;7;Solängens BK 2017 Gul;https://staticcdn.svenskfotboll.se/img/teamssm/9548.png;7;-1--1;Önneredsplan 2;Önneredsplan;Ersåsgatan 2, 421 59 Västra Frölunda;Y;57.637219;11.884878;Göteborg;football
7;2026-05-01;12:00;133604;Pojkar 2013(13 år) Vår Lätt Grupp D;2;3;6643279;4;/go-to/?fmid=6643279;IF Väster P-2013 Orange;https://staticcdn.svenskfotboll.se/img/teamssm/9861.png;7;Mossens BK Vit;https://staticcdn.svenskfotboll.se/img/teamssm/9571.png;7;7-3;Önneredsplan 12 Konstgräs;Önneredsplan;Ersåsgatan 2, 421 59 Västra Frölunda;Y;57.637219;11.884878;Göteborg;football
7;2026-05-01;12:00;133581;Pojkar 2011(15 år) Medel Grupp C;2;3;6608177;4;/go-to/?fmid=6608177;Lunden Överås BK Svart;https://staticcdn.svenskfotboll.se/img/teamssm/10705.png;7;Sandarna BK Röd;https://staticcdn.svenskfotboll.se/img/teamssm/10367.png;7;4-0;Överåsvallen 1 Konstgräs;Överåsvallen;Skogshyddegatan 16, 412 74 Göteborg;Y;57.707876;12.002439;Göteborg;football
1;2026-05-01;12:30;129327;P19 Superettan Södra 2026;2;3;6561615;4;/go-to/?fmid=6561615;IF Elfsborg;https://staticcdn.svenskfotboll.se/img/teamssm/11429.png;21;Skövde AIK;https://staticcdn.svenskfotboll.se/img/teamssm/10281.png;21;4-1;Borås Arena;Borås Arena;Borås Arena, Ålgårdsvägen 16, 506 30 Borås;Y;57.734400;12.934766;1;football
7;2026-05-01;12:30;133586;Pojkar 2012(14 år) Svår Grupp A;2;3;6622146;4;/go-to/?fmid=6622146;Mölnlycke IS Ungdom 1;https://staticcdn.svenskfotboll.se/img/teamssm/13695.png;7;GAIS Akademi;https://staticcdn.svenskfotboll.se/img/teamssm/9614.png;7;1-1;Djupedalsplan B Konstgräs;Djupedals IP;Djupedals Ip, Rullstensvägen 1, 435 41 Mölnlycke;Y;57.652820;12.126316;Göteborg;football
28;2026-05-01;12:30;135703;BDFF F13-14 Blå;3;3;6675447;4;/go-to/?fmid=6675447;Stenungsunds IF F12;https://staticcdn.svenskfotboll.se/img/teamssm/10236.png;28;Groheds IF/LSK F2012-2013;https://staticcdn.svenskfotboll.se/img/teamssm/11268.png;28;3-1;Olssons Trävaror Arena;Olssons Trävaror Arena;Yttre Ringleden 6, 444 32 Stenungsund;Y;58.067866;11.858581;Bohuslän-Dalsland;football
21;2026-05-01;12:30;136520;Pojkar Div 5 U15 Västergötland;2;3;6709455;4;/go-to/?fmid=6709455;Norrby IF;https://staticcdn.svenskfotboll.se/img/teamssm/10554.png;21;Alingsås IF FF Vit;https://staticcdn.svenskfotboll.se/img/teamssm/12595.png;21;1-3;Ramnavallen konstgräs;Ramnavallen;Ramnavallen, Enandersgatan, Byttorp, Borås, Borås kommun, Västra Götalands län, 504 66, Sverige;Y;57.722541;12.919158;Västergötland;football
21;2026-05-01;12:30;137600;Flickor Div 6 Falköping;3;2;6782211;5;/go-to/?fmid=6782211;Råda BK Svart;https://staticcdn.svenskfotboll.se/img/teamssm/10400.png;21;Skultorps IF Gul;https://staticcdn.svenskfotboll.se/img/teamssm/10298.png;21;-1--1;Rådavallen;Rådavallen;Rådavallen, Vattenledningsvägen, Råda, Råda distrikt, Lidköpings kommun, Västra Götalands län, 531 59, Sverige;Y;58.499337;13.102725;Västergötland;football
21;2026-05-01;12:30;137602;Flickor Div 6 Lidköping;3;2;6782527;5;/go-to/?fmid=6782527;Råda BK Grön;https://staticcdn.svenskfotboll.se/img/teamssm/10400.png;21;Skara FC Blå;https://staticcdn.svenskfotboll.se/img/teamssm/7451.png;21;-1--1;Rådavallen;Rådavallen;Rådavallen, Vattenledningsvägen, Råda, Råda distrikt, Lidköpings kommun, Västra Götalands län, 531 59, Sverige;Y;58.499337;13.102725;Västergötland;football
7;2026-05-01;12:45;133669;Pojkar 2016(10 år) Grupp D Vår;2;2;6606959;5;/go-to/?fmid=6606959;Älvsborg FF 4;https://staticcdn.svenskfotboll.se/img/teamssm/9622.png;7;IFK Hindås P16 Röd;https://staticcdn.svenskfotboll.se/img/teamssm/11008.png;7;-1--1;Hagenplan 11;Hagenplan;Hagens Prästväg 4, 426 74 Västra Frölunda;Y;57.674967;11.882285;Göteborg;football
21;2026-05-01;13:00;136298;Pojkar P16 DM 2026;2;3;6615539;4;/go-to/?fmid=6615539;Vara SK;https://staticcdn.svenskfotboll.se/img/teamssm/9966.png;21;Lidköpings FK;https://staticcdn.svenskfotboll.se/img/teamssm/8704.png;21;0-3;Bendersvallen Konstgräs;Bendersvallen;Gradgatan 3, 534 50 Vara;Y;58.264542;12.975519;Västergötland;football
7;2026-05-01;13:00;133693;Pojkar 2017(9 år) Centrum+Härryda+Mölndal+Väster Grupp B Vår;2;2;6619540;5;/go-to/?fmid=6619540;Hovås Billdal IF Lag 3 Blå;https://staticcdn.svenskfotboll.se/img/teamssm/11109.png;7;Västra Frölunda IF;https://staticcdn.svenskfotboll.se/img/teamssm/9853.png;7;-1--1;Billdalsvallen 3A;Billdalsvallen;Påls väg, 427 36 Göteborg;Y;57.588232;11.949791;Göteborg;football
7;2026-05-01;13:00;133694;Pojkar 2017(9 år) Centrum+Härryda+Mölndal+Väster Grupp C Vår;2;2;6619831;5;/go-to/?fmid=6619831;Hovås Billdal IF Röd;https://staticcdn.svenskfotboll.se/img/teamssm/11109.png;7;Mölnlycke IS Ungdom 1;https://staticcdn.svenskfotboll.se/img/teamssm/13695.png;7;-1--1;Billdalsvallen 3B;Billdalsvallen;Påls väg, 427 36 Göteborg;Y;57.588232;11.949791;Göteborg;football
1;2026-05-01;13:00;131959;Div 2 Västra Götaland, herr 2026;2;4;6547468;4;/go-to/?fmid=6547468;Hestrafors IF;https://staticcdn.svenskfotboll.se/img/teamssm/11145.png;21;Västra Frölunda IF;https://staticcdn.svenskfotboll.se/img/teamssm/9853.png;7;2-4;Bollevi Konstgräs;Bollevi;BRANDSHED 44, 517 92 Bollebygd;Y;57.710389;12.582741;1;football
28;2026-05-01;13:00;135551;Div.5 Herr Östra Bohuslän-Dalsland;2;4;6591323;4;/go-to/?fmid=6591323;Hogstorps IF;https://staticcdn.svenskfotboll.se/img/teamssm/11126.png;28;Rosseröds IK;https://staticcdn.svenskfotboll.se/img/teamssm/8499.png;28;2-3;Bräckevallen;Bräckevallen;Bräckevallen, Västra Bräckekroken, Berga, Hogstorp, Uddevalla kommun, Västra Götalands län, 451 94, Sverige;Y;58.400981;11.761322;Bohuslän-Dalsland;football
28;2026-05-01;13:00;135551;Div.5 Herr Östra Bohuslän-Dalsland;2;4;6591327;4;/go-to/?fmid=6591327;Bäckefors IF;https://staticcdn.svenskfotboll.se/img/teamssm/11493.png;28;Åsebro IF/KIF;https://staticcdn.svenskfotboll.se/img/teamssm/9805.png;28;2-3;Bäckevallen;Bäckevallen;Bäckevallen, Såggatan, Bäckefors, Bengtsfors kommun, Västra Götalands län, 668 88, Sverige;Y;58.811301;12.155589;Bohuslän-Dalsland;football
21;2026-05-01;13:00;135592;Damer, Div 5 Västra;3;4;6582788;4;/go-to/?fmid=6582788;Halvorstorp/Trollhättans FK/FC Trollhättan U (9:9);https://staticcdn.svenskfotboll.se/img/teamssm/8705.png;21;Långareds BoIS (9:9);https://staticcdn.svenskfotboll.se/img/teamssm/10698.png;21;2-2;Edsborgs IP Konstgräs;Edsborgs IP;Edsborgs idrottsplats, Solrosvägen, Stavre, Trollhättan, Trollhättans kommun, Västra Götalands län, 461 43, Sverige;Y;58.290180;12.312179;Västergötland;football
1;2026-05-01;13:00;131959;Div 2 Västra Götaland, herr 2026;2;4;6547469;4;/go-to/?fmid=6547469;IF Böljan Falkenberg;https://staticcdn.svenskfotboll.se/img/teamssm/9528.png;8;Torslanda IK;https://staticcdn.svenskfotboll.se/img/teamssm/10068.png;7;2-2;Falkenbergs IP A;Falkenbergs IP;Falkenbergs IP A, Skogsvägen, Kristineslätt, Skrea Strand, Falkenberg, Falkenbergs kommun, Hallands län, 311 45, Sverige;Y;56.897775;12.508271;1;football
7;2026-05-01;13:00;133699;Pojkar 2017(9 år) Lerum+Partille+Öster Grupp B Vår;2;2;6617848;5;/go-to/?fmid=6617848;Floda BoIF P17 Svart;https://staticcdn.svenskfotboll.se/img/teamssm/11366.png;7;Lerums IS P17V 2;https://staticcdn.svenskfotboll.se/img/teamssm/10756.png;7;-1--1;Flodala IP 4 FRAMTIDEN;Flodala IP;Skallsjö Prästväg 14, 448 31 Floda;Y;57.795503;12.346356;Göteborg;football
28;2026-05-01;13:00;135777;Div.4 Herr Bohuslän-Dalsland 2026;2;4;6579903;4;/go-to/?fmid=6579903;Lysekils AIK;https://staticcdn.svenskfotboll.se/img/teamssm/10699.png;28;Högsäters GF;https://staticcdn.svenskfotboll.se/img/teamssm/11042.png;28;0-0;Gullmarsvallen;Gullmarsvallen;Gullmarsvallen, Pinneviksvägen, Dona, Lysekil, Lysekils kommun, Västra Götalands län, 453 31, Sverige;Y;58.269620;11.422889;Bohuslän-Dalsland;football
1;2026-05-01;13:00;131817;Div 3 Nordvästra Götaland, herr 2026;2;4;6550586;4;/go-to/?fmid=6550586;Wargöns IK;https://staticcdn.svenskfotboll.se/img/teamssm/9843.png;21;IF Haga;https://staticcdn.svenskfotboll.se/img/teamssm/9141.png;15;3-1;Hallevi IP, Wargön A-plan;Hallevi IP;Nordkroksvägen 85, 468 33 Vargön;Y;58.366825;12.400851;1;football
8;2026-05-01;13:00;133918;Division 4 Herr Halland;2;4;6526425;4;/go-to/?fmid=6526425;Ullareds IK;https://staticcdn.svenskfotboll.se/img/teamssm/9482.png;8;IFK Fjärås;https://staticcdn.svenskfotboll.se/img/teamssm/9511.png;8;3-0;Hedevi 1;Hedevi;Hedevi idrottsplats, Hedevivägen, Heden, Ullared, Falkenbergs kommun, Hallands län, 311 60, Sverige;Y;57.127163;12.718271;Halland;football
7;2026-05-01;13:00;133699;Pojkar 2017(9 år) Lerum+Partille+Öster Grupp B Vår;2;2;6617843;5;/go-to/?fmid=6617843;Gunnilse IS Vit;https://staticcdn.svenskfotboll.se/img/teamssm/11237.png;7;Lekstorps IF P17 Vit;https://staticcdn.svenskfotboll.se/img/teamssm/10760.png;7;-1--1;Hjällbovallen 21 konstgräs;Hjällbovallen;Knattens väg 12, 424 32 Angered;Y;57.777950;12.017062;Göteborg;football
1;2026-05-01;13:00;131959;Div 2 Västra Götaland, herr 2026;2;4;6547471;4;/go-to/?fmid=6547471;Jonsereds IF;https://staticcdn.svenskfotboll.se/img/teamssm/9595.png;7;Dalstorps IF;https://staticcdn.svenskfotboll.se/img/teamssm/11468.png;21;1-1;Jonsereds IP 1 Konstgräs;Jonsereds IP;Jons väg 23, 433 75 Jonsered;Y;57.746215;12.169063;1;football
1;2026-05-01;13:00;131820;Div 3 Sydvästra Götaland, herr 2026;2;4;6550979;4;/go-to/?fmid=6550979;Derome-Åskloster FF;https://staticcdn.svenskfotboll.se/img/teamssm/13260.png;8;Hittarps IK;https://staticcdn.svenskfotboll.se/img/teamssm/11135.png;14;0-3;Klostervallen A;Klostervallen;Klostervallen, Klostervägen, Gudhem, Gudhems distrikt, Falköpings kommun, Västra Götalands län, 521 74, Sverige;Y;58.231995;13.564086;1;football
1;2026-05-01;13:00;135383;P16 Div.1 2026 Västra Götaland;2;3;6569049;4;/go-to/?fmid=6569049;Falkenbergs FF;https://staticcdn.svenskfotboll.se/img/teamssm/9525.png;8;IFK Fjärås;https://staticcdn.svenskfotboll.se/img/teamssm/9511.png;8;1-3;Kristineslätt IP 5;Kristineslätt IP;Kristineslätt, Skrea Strand, Falkenberg, Falkenbergs kommun, Hallands län, 311 41, Sverige;Y;56.891601;12.514593;1;football
1;2026-05-01;13:00;129333;P19 Div.1 2026 Västra Götaland;2;3;6585856;4;/go-to/?fmid=6585856;Falkenbergs FF;https://staticcdn.svenskfotboll.se/img/teamssm/9525.png;8;Finlandia Pallo AIF;https://staticcdn.svenskfotboll.se/img/teamssm/7939.png;7;9-1;Kristineslätt IP 1;Kristineslätt IP;Kristineslätt, Skrea Strand, Falkenberg, Falkenbergs kommun, Hallands län, 311 41, Sverige;Y;56.891601;12.514593;1;football
7;2026-05-01;13:00;133826;Flickor 2017(9 år) Lerum+Partille+Öster Vår;3;2;6612943;5;/go-to/?fmid=6612943;Qviding FIF 2;https://staticcdn.svenskfotboll.se/img/teamssm/8089.png;7;Utbynäs SK Svart;https://staticcdn.svenskfotboll.se/img/teamssm/9983.png;7;-1--1;Kviberg 1 konstgräs;Kviberg;Luftvärnsvägen, 415 06 Göteborg;Y;57.737550;12.038540;Göteborg;football
7;2026-05-01;13:00;133690;Pojkar 2017(9 år) Hisingen + Öckerö Grupp A Vår;2;2;6616528;5;/go-to/?fmid=6616528;Backatorp IF Svart;https://staticcdn.svenskfotboll.se/img/teamssm/11915.png;7;BK Häcken P2017 lag 2 Gul;https://staticcdn.svenskfotboll.se/img/teamssm/11080.png;7;-1--1;Lillhagsplan 11;Lillhagsplan;Lillhagsvägen, 422 57 Hisings Backa;Y;57.763300;11.956822;Göteborg;football
1;2026-05-01;13:00;131959;Div 2 Västra Götaland, herr 2026;2;4;6547472;4;/go-to/?fmid=6547472;Lindome GIF;https://staticcdn.svenskfotboll.se/img/teamssm/10741.png;7;Onsala BK;https://staticcdn.svenskfotboll.se/img/teamssm/10495.png;8;0-2;Lindevi IP 1 Konstgräs;Lindevi IP;Hällesåkersvägen 5, 437 91 Lindome;Y;57.585286;12.108877;1;football
21;2026-05-01;13:00;137569;Pojkar Div 11 Vänersborg;2;2;6777495;5;/go-to/?fmid=6777495;Trollhättans FK Vit;https://staticcdn.svenskfotboll.se/img/teamssm/8642.png;21;Trollhättans BoIS Röd;https://staticcdn.svenskfotboll.se/img/teamssm/8643.png;21;-1--1;Lyrfågel konstgräs;Lyrfågel;Hagtornsstigen 18, 461 43 Trollhättan;Y;57.673465;11.891683;Västergötland;football
21;2026-05-01;13:00;137585;Pojkar Div 13 Lilla Edet;2;2;6779375;5;/go-to/?fmid=6779375;Trollhättans FK Röd;https://staticcdn.svenskfotboll.se/img/teamssm/8642.png;21;Trollhättans BoIS Vit;https://staticcdn.svenskfotboll.se/img/teamssm/8643.png;21;-1--1;Lyrfågel konstgräs;Lyrfågel;Hagtornsstigen 18, 461 43 Trollhättan;Y;57.673465;11.891683;Västergötland;football
7;2026-05-01;13:00;133697;Pojkar 2017(9 år) Lerum+Partille+Öster Grupp A Vår;2;2;6617302;5;/go-to/?fmid=6617302;Marieholm IK Röd;https://staticcdn.svenskfotboll.se/img/teamssm/13640.png;7;Lekstorps IF P17 Grön;https://staticcdn.svenskfotboll.se/img/teamssm/10760.png;7;-1--1;Lövgärdesplan 1 Gräs;Lövgärdesplan;Svarte Filips Gata 10, 424 44 Angered;Y;57.814492;12.031817;Göteborg;football
1;2026-05-01;13:00;131818;Div 3 Mellersta Götaland, herr 2026;2;4;6550313;4;/go-to/?fmid=6550313;Öckerö IF;https://staticcdn.svenskfotboll.se/img/teamssm/9774.png;7;IFK Uddevalla;https://staticcdn.svenskfotboll.se/img/teamssm/8505.png;28;0-2;Prästängen 1 Konstgräs;Prästängen;PRÄSTÄNGEN 1, 475 31 Öckerö;Y;57.717030;11.641158;1;football
21;2026-05-01;13:00;135574;Herrar, Div 5 Nordvästra;2;4;6568148;4;/go-to/?fmid=6568148;Råda BK;https://staticcdn.svenskfotboll.se/img/teamssm/10400.png;21;Göta BK;https://staticcdn.svenskfotboll.se/img/teamssm/11220.png;21;0-1;Rådavallen A-plan;Rådavallen;Rådavallen, Vattenledningsvägen, Råda, Råda distrikt, Lidköpings kommun, Västra Götalands län, 531 59, Sverige;Y;58.499337;13.102725;Västergötland;football
28;2026-05-01;13:00;135343;Div.3 Dam Bohuslän-Dalsland 2026;3;4;6599937;4;/go-to/?fmid=6599937;Eds FF;https://staticcdn.svenskfotboll.se/img/teamssm/11441.png;28;Tjörns DFF;https://staticcdn.svenskfotboll.se/img/teamssm/12207.png;28;1-0;SJB Arena;SJB Arena;SJB Arena, Stubbekasvägen, Ed, Dals-Eds kommun, Västra Götalands län, 668 30, Sverige;Y;58.907774;11.944674;Bohuslän-Dalsland;football
21;2026-05-01;13:00;135579;Herrar, Div 6 Lidköping;2;4;6581230;4;/go-to/?fmid=6581230;Saleby IF;https://staticcdn.svenskfotboll.se/img/teamssm/8661.png;21;Edsvära-Norra Vånga FF;https://staticcdn.svenskfotboll.se/img/teamssm/7102.png;21;2-5;Salebyvallen A-plan;Salebyvallen;Saleby 5, 531 93 Lidköping;Y;58.377570;13.134559;Västergötland;football
8;2026-05-01;13:00;137161;P12år Blå;2;2;6737787;5;/go-to/?fmid=6737787;Snöstorp Nyhem Vit;https://staticcdn.svenskfotboll.se/img/teamssm/7704.png;8;Halmstads BK Gul;https://staticcdn.svenskfotboll.se/img/teamssm/9517.png;8;-1--1;Skedalaheds IP 4;Skedalaheds IP;Skedalahed 114, 305 93 Halmstad;Y;56.686715;12.945246;Halland;football
21;2026-05-01;13:00;136518;Pojkar Div 5 Skövde;2;3;6710071;4;/go-to/?fmid=6710071;Stenstorps IF;https://staticcdn.svenskfotboll.se/img/teamssm/10238.png;21;IFK Hjo;https://staticcdn.svenskfotboll.se/img/teamssm/11007.png;21;0-10;Sportvallen A;Sportvallen;Hantverkaregatan, 521 60 Stenstorp;Y;58.269760;13.726880;Västergötland;football
1;2026-05-01;13:00;133297;F17 Div.1 2026 - Götaland Norra;3;3;6590884;4;/go-to/?fmid=6590884;Vallens IF;https://staticcdn.svenskfotboll.se/img/teamssm/8496.png;28;FC Trollhättan;https://staticcdn.svenskfotboll.se/img/teamssm/6983.png;21;0-9;Stora Höga IP Konstgräs;Stora Höga IP;Stora Höga, Stenungsunds kommun, Västra Götalands län, 444 60, Sverige;Y;58.014336;11.828450;1;football
28;2026-05-01;13:00;135343;Div.3 Dam Bohuslän-Dalsland 2026;3;4;6599940;4;/go-to/?fmid=6599940;Orust FC;https://staticcdn.svenskfotboll.se/img/teamssm/12132.png;28;Svarteborg/Bullaren;https://staticcdn.svenskfotboll.se/img/teamssm/11459.png;28;7-0;Tavlebordsvallen;Tavlebordsvallen;Tavlebordsvallen, O 740, Tvet, Orust kommun, Västra Götalands län, 473 97, Sverige;Y;58.143124;11.572918;Bohuslän-Dalsland;football
7;2026-05-01;13:00;133690;Pojkar 2017(9 år) Hisingen + Öckerö Grupp A Vår;2;2;6616534;5;/go-to/?fmid=6616534;Torslanda IK Gul;https://staticcdn.svenskfotboll.se/img/teamssm/10068.png;7;Brämaregårdens FC Svart;https://staticcdn.svenskfotboll.se/img/teamssm/12563.png;7;-1--1;Torslandavallen 41 Gräs;Torslandavallen;Torslanda Idrottsväg 17, 423 32 Torslanda;Y;57.718280;11.757490;Göteborg;football
28;2026-05-01;13:00;135704;BDFF F13-14 Grön Östra;3;3;6678319;4;/go-to/?fmid=6678319;Herrestads AIF F2013-2014;https://staticcdn.svenskfotboll.se/img/teamssm/11149.png;28;Färgelanda IF F13/14;https://staticcdn.svenskfotboll.se/img/teamssm/11322.png;28;0-3;Undavallen Konstgräs;Undavallen;Stan 101, 451 94 Uddevalla;Y;58.336300;11.826976;Bohuslän-Dalsland;football
7;2026-05-01;13:00;133826;Flickor 2017(9 år) Lerum+Partille+Öster Vår;3;2;6612871;5;/go-to/?fmid=6612871;Sävedalens IF F2017 Panter;https://staticcdn.svenskfotboll.se/img/teamssm/9545.png;7;Lerums IS F2017 2;https://staticcdn.svenskfotboll.se/img/teamssm/10756.png;7;-1--1;Vallhamra Skola;Vallhamra Skola;Långåkern 7, 433 65 Sävedalen;Y;57.720856;12.076205;Göteborg;football
21;2026-05-01;13:00;137613;Flickor Div 7 Nossebro;3;2;6783512;5;/go-to/?fmid=6783512;Vänersborgs IF Blå;https://staticcdn.svenskfotboll.se/img/teamssm/8627.png;21;Södra Härene IF;https://staticcdn.svenskfotboll.se/img/teamssm/10122.png;21;-1--1;Vänersvallen Syd;Vänersvallen;Gropbrovägen 4, 462 56 Vänersborg;Y;58.367442;12.323966;Västergötland;football
7;2026-05-01;13:00;133744;Flickor 2010-2011 Lätt Grupp A;3;3;6584978;4;/go-to/?fmid=6584978;Ytterby IS F11;https://staticcdn.svenskfotboll.se/img/teamssm/9832.png;7;Angereds IS F10/11;https://staticcdn.svenskfotboll.se/img/teamssm/12744.png;7;1-2;Ytterns IP 3 konstgräs;Ytterns IP;Ytterby, 442 40 Kungälv;Y;57.869280;11.935196;Göteborg;football
1;2026-05-01;13:00;133439;Elitettan 2026;3;4;6536356;4;/go-to/?fmid=6536356;Jitex BK;https://staticcdn.svenskfotboll.se/img/teamssm/7516.png;7;Husqvarna FF;https://staticcdn.svenskfotboll.se/img/teamssm/11098.png;15;1-1;Åbyvallen 1 Konstgräs;Åbyvallen;Idrottsvägen 5, 431 62 Mölndal;Y;57.645363;12.002082;1;football
7;2026-05-01;13:00;133825;Flickor 2017(9 år) Centrum+Härryda+Mölndal+Väster Grupp B Vår;3;2;6613587;5;/go-to/?fmid=6613587;Jitex BK Vit;https://staticcdn.svenskfotboll.se/img/teamssm/7516.png;7;Mölnlycke IF F17 Lag 3;https://staticcdn.svenskfotboll.se/img/teamssm/10594.png;7;-1--1;Åbyvallen 8 Konstgräs 7M7;Åbyvallen;Idrottsvägen 5, 431 62 Mölndal;Y;57.645363;12.002082;Göteborg;football
28;2026-05-01;13:00;135777;Div.4 Herr Bohuslän-Dalsland 2026;2;4;6579871;4;/go-to/?fmid=6579871;Ödsmåls IK;https://staticcdn.svenskfotboll.se/img/teamssm/9771.png;28;Groheds IF;https://staticcdn.svenskfotboll.se/img/teamssm/11268.png;28;3-2;Ödsmåls IP;Ödsmåls IP;Ödsmåls idrottsplats, Drejarevägen, Apleröd, Ödsmål, Stenungsunds kommun, Västra Götalands län, 444 95, Sverige;Y;58.114563;11.858991;Bohuslän-Dalsland;football
7;2026-05-01;13:00;133693;Pojkar 2017(9 år) Centrum+Härryda+Mölndal+Väster Grupp B Vår;2;2;6619538;5;/go-to/?fmid=6619538;IF Väster P2017 Svart;https://staticcdn.svenskfotboll.se/img/teamssm/9861.png;7;Solängens BK 2017 Vit;https://staticcdn.svenskfotboll.se/img/teamssm/9548.png;7;-1--1;Önneredsplan 2;Önneredsplan;Ersåsgatan 2, 421 59 Västra Frölunda;Y;57.637219;11.884878;Göteborg;football
7;2026-05-01;13:15;133653;Pojkar 2015(11 år) Grupp K Vår;2;2;6604129;5;/go-to/?fmid=6604129;Lerums IS P15 lila 2;https://staticcdn.svenskfotboll.se/img/teamssm/10756.png;7;Lekstorps IF P15Svart;https://staticcdn.svenskfotboll.se/img/teamssm/10760.png;7;-1--1;Aspevallen B-plan;Aspevallen;Strandvägen 7, 443 31 Lerum;Y;57.768427;12.253218;Göteborg;football
7;2026-05-01;13:15;133772;Flickor 2014(12 år) Grupp A Vår;3;2;6586331;5;/go-to/?fmid=6586331;Mossens BK F14;https://staticcdn.svenskfotboll.se/img/teamssm/9571.png;7;Mölnlycke IF SVART;https://staticcdn.svenskfotboll.se/img/teamssm/10594.png;7;-1--1;Guldheden Södra 11 Konstgräs;Guldheden Södra;Gibraltargatan 41, 412 58 Göteborg;Y;57.681136;11.982964;Göteborg;football
7;2026-05-01;13:15;133668;Pojkar 2016(10 år) Grupp C Vår;2;2;6606275;5;/go-to/?fmid=6606275;Askims IK P2016 U10 Svart;https://staticcdn.svenskfotboll.se/img/teamssm/11617.png;7;IF Väster Orange;https://staticcdn.svenskfotboll.se/img/teamssm/9861.png;7;-1--1;Kobbegården 3 Konstgräs 7M7;Kobbegården;Stora Åvägen 1, 436 34 Askim;Y;57.639723;11.944383;Göteborg;football
7;2026-05-01;13:15;133666;Pojkar 2016(10 år) Grupp A Vår;2;2;6605719;5;/go-to/?fmid=6605719;GoldCoast FC svart;https://staticcdn.svenskfotboll.se/img/teamssm/13374.png;7;Älvängens IK P16 vit;https://staticcdn.svenskfotboll.se/img/teamssm/9783.png;7;-1--1;Kortedalavallen 3;Kortedalavallen;Kortedala Idrottsväg 13, 415 37 Göteborg;Y;57.751830;12.040079;Göteborg;football
7;2026-05-01;13:15;133575;Pojkar 2011(15 år) Medel Grupp A;2;3;6607701;4;/go-to/?fmid=6607701;Azalea BK Svart;https://staticcdn.svenskfotboll.se/img/teamssm/7817.png;7;Nödinge SK Fotboll Blå;https://staticcdn.svenskfotboll.se/img/teamssm/10503.png;7;3-0;Majvallen 1 Konstgräs;Majvallen;Ekedalsgatan 20, 414 68 Göteborg;Y;57.689370;11.936171;Göteborg;football
7;2026-05-01;13:15;133149;Division 4B Herr;2;4;6532193;4;/go-to/?fmid=6532193;Mossens BK;https://staticcdn.svenskfotboll.se/img/teamssm/9571.png;7;Älvsborg FF;https://staticcdn.svenskfotboll.se/img/teamssm/9622.png;7;1-2;Valhalla 1 Konstgräs;Valhalla;Valhallagatan 6, 412 51 Göteborg;Y;57.701605;11.991324;Göteborg;football
7;2026-05-01;13:30;133601;Pojkar 2013(13 år) Vår Lätt Grupp A;2;3;6643001;4;/go-to/?fmid=6643001;Bergsjö IF P2013;https://staticcdn.svenskfotboll.se/img/teamssm/11586.png;7;Kungsladugårds BK Röd;https://staticcdn.svenskfotboll.se/img/teamssm/10799.png;7;14-3;Bergsjövallen 22 Konstgräs;Bergsjövallen;Sjustjärnan 20, 415 51 Göteborg;Y;57.750377;12.057010;Göteborg;football
21;2026-05-01;13:30;136300;Flickor F16 DM 2026;3;3;6616000;4;/go-to/?fmid=6616000;IF Elfsborg;https://staticcdn.svenskfotboll.se/img/teamssm/11429.png;21;Hestrafors IF;https://staticcdn.svenskfotboll.se/img/teamssm/11145.png;21;3-0;Borås Arena 2 konstgräs;Borås Arena;Borås Arena, Ålgårdsvägen 16, 506 30 Borås;Y;57.734400;12.934766;Västergötland;football
7;2026-05-01;13:30;133589;Pojkar 2012(14 år) Lätt Grupp B;2;3;6621927;4;/go-to/?fmid=6621927;Azalea BK Svart;https://staticcdn.svenskfotboll.se/img/teamssm/7817.png;7;Mossens BK Gul;https://staticcdn.svenskfotboll.se/img/teamssm/9571.png;7;6-2;Gröna Vallen 1;Gröna Vallen;Gröna Vallen, Svanebäcksgatan 16, 414 71 Göteborg;Y;57.687961;11.917564;Göteborg;football
8;2026-05-01;13:30;136280;P15 Södra Götaland;2;3;6606858;4;/go-to/?fmid=6606858;Halmstads BK;https://staticcdn.svenskfotboll.se/img/teamssm/9517.png;8;Hittarps IK;https://staticcdn.svenskfotboll.se/img/teamssm/11135.png;14;7-0;Halmstad Arena Klaraplanen;Halmstad Arena;;Y;56.675943;12.888513;Halland;football
7;2026-05-01;13:30;133584;Pojkar 2012(14 år) Medel Grupp D;2;3;6621515;4;/go-to/?fmid=6621515;Hovås Billdal IF Grön;https://staticcdn.svenskfotboll.se/img/teamssm/11109.png;7;Hjuviks AIK P2012 vit;https://staticcdn.svenskfotboll.se/img/teamssm/8330.png;7;5-2;Hovås Billdal Arena 1;Hovås Billdal Arena;Kruniusvägen, 427 36 Billdal;Y;57.589555;11.946909;Göteborg;football
7;2026-05-01;13:30;133577;Pojkar 2011(15 år) Svår Grupp A;2;3;6608375;4;/go-to/?fmid=6608375;Qviding FIF 1;https://staticcdn.svenskfotboll.se/img/teamssm/8089.png;7;Torslanda IK Röd;https://staticcdn.svenskfotboll.se/img/teamssm/10068.png;7;4-1;Härlanda Park 1 Konstgräs;Härlanda Park;Härlanda Park 6B, 416 52 Göteborg;Y;57.716492;12.017055;Göteborg;football
7;2026-05-01;13:30;133590;Pojkar 2012(14 år) Lätt Grupp C;2;3;6622055;4;/go-to/?fmid=6622055;Näsets SK P2012 -2 Näsets SK P2012 - Svart;https://staticcdn.svenskfotboll.se/img/teamssm/10510.png;7;Lindome GIF vit;https://staticcdn.svenskfotboll.se/img/teamssm/10741.png;7;2-1;Näset Yuncture Arena;Åkeredsvallen;Bergsätersgatan 1, 421 66 Västra Frölunda;Y;57.631456;11.900982;Göteborg;football
8;2026-05-01;13:30;137648;P14år Blå Norra;2;3;6781524;4;/go-to/?fmid=6781524;Åsa IF;https://staticcdn.svenskfotboll.se/img/teamssm/9807.png;8;Kungsbacka IF Vit;https://staticcdn.svenskfotboll.se/img/teamssm/9505.png;8;6-2;Åsa C;Åsa Centrum;Bollvägen 107-113, 439 54 Åsa;Y;57.353889;12.115352;Halland;football
7;2026-05-01;13:30;133592;Pojkar 2012(14 år) Svår Grupp C;2;3;6622328;4;/go-to/?fmid=6622328;IF Väster Vit;https://staticcdn.svenskfotboll.se/img/teamssm/9861.png;7;GAIS 4;https://staticcdn.svenskfotboll.se/img/teamssm/9614.png;7;0-1;Önneredsplan 1 Konstgräs;Önneredsplan;Ersåsgatan 2, 421 59 Västra Frölunda;Y;57.637219;11.884878;Göteborg;football
7;2026-05-01;13:45;133595;Pojkar 2013(13 år) Vår Medel Grupp A;2;3;6636193;4;/go-to/?fmid=6636193;Lunden Överås BK Vit;https://staticcdn.svenskfotboll.se/img/teamssm/10705.png;7;Masthuggets BK 2;https://staticcdn.svenskfotboll.se/img/teamssm/10643.png;7;3-9;Överåsvallen 11 Konstgräs;Överåsvallen;Skogshyddegatan 16, 412 74 Göteborg;Y;57.707876;12.002439;Göteborg;football
7;2026-05-01;14:00;133694;Pojkar 2017(9 år) Centrum+Härryda+Mölndal+Väster Grupp C Vår;2;2;6619830;5;/go-to/?fmid=6619830;Hovås Billdal IF Grön;https://staticcdn.svenskfotboll.se/img/teamssm/11109.png;7;Mölnlycke IS Ungdom 2;https://staticcdn.svenskfotboll.se/img/teamssm/13695.png;7;-1--1;Billdalsvallen 3B;Billdalsvallen;Påls väg, 427 36 Göteborg;Y;57.588232;11.949791;Göteborg;football
1;2026-05-01;14:00;131966;Div 1 Södra, dam 2026;3;4;6545810;4;/go-to/?fmid=6545810;Skepplanda BTK;https://staticcdn.svenskfotboll.se/img/teamssm/10314.png;21;Halmstads BK;https://staticcdn.svenskfotboll.se/img/teamssm/9517.png;8;1-1;Forsvallen A-plan;Forsvallen IP;Vadbacka 125, 446 94 Skepplanda;Y;57.977314;12.195539;1;football
28;2026-05-01;14:00;135521;Damer, Div 2 Nordvästra Götaland;3;4;6565585;4;/go-to/?fmid=6565585;IK Rössö Uddevalla;https://staticcdn.svenskfotboll.se/img/teamssm/8498.png;28;Tollereds IF;https://staticcdn.svenskfotboll.se/img/teamssm/10081.png;7;2-2;Fridhemsvallen Konstgräs;Fridhemsvallen;Fridhemsvallen, Fridhemsvägen, 451 93 Uddevalla;Y;58.381083;11.937419;Bohuslän-Dalsland;football
7;2026-05-01;14:00;135820;Flickor 2012-2013 Stor 9M9 Lätt Gr. B Vår;3;3;6583873;4;/go-to/?fmid=6583873;Öjersjö IF F12/13 Vit;https://staticcdn.svenskfotboll.se/img/teamssm/7552.png;7;Mossens BK/Dalen KFF;https://staticcdn.svenskfotboll.se/img/teamssm/9571.png;7;7-2;Furulundsplan 1 Konstgräs;Furulundsplan;Furulundsplan, Timmervägen, 433 47 Partille;Y;57.727253;12.129716;Göteborg;football
21;2026-05-01;14:00;135572;Herrar, Div 4 Västra;2;4;6567711;4;/go-to/?fmid=6567711;Trollhättan Syrianska FK;https://staticcdn.svenskfotboll.se/img/teamssm/13203.png;21;Jung/Kvänum 10 IF;https://staticcdn.svenskfotboll.se/img/teamssm/12234.png;21;0-5;Granngårdens Konstgräs;Granngårdens;Granngårdens Idrottsanläggning, Lextorpsvägen, Lextorp, Trollhättan, Trollhättans kommun, Västra Götalands län, 461 63, Sverige;Y;58.261543;12.297018;Västergötland;football
8;2026-05-01;14:00;136434;F10år Söder;3;2;6726490;5;/go-to/?fmid=6726490;Skottorps IF Grön;https://staticcdn.svenskfotboll.se/img/teamssm/10302.png;8;VGLT;https://staticcdn.svenskfotboll.se/img/teamssm/7223.png;8;-1--1;Gröningen B1;Gröningen;Gröningens väg 1, 312 77 Skottorp;Y;56.449440;12.954590;Halland;football
7;2026-05-01;14:00;133669;Pojkar 2016(10 år) Grupp D Vår;2;2;6606960;5;/go-to/?fmid=6606960;Älvsborg FF 3;https://staticcdn.svenskfotboll.se/img/teamssm/9622.png;7;IFK Hindås P16 Blå;https://staticcdn.svenskfotboll.se/img/teamssm/11008.png;7;-1--1;Hagenplan 11;Hagenplan;Hagens Prästväg 4, 426 74 Västra Frölunda;Y;57.674967;11.882285;Göteborg;football
7;2026-05-01;14:00;133590;Pojkar 2012(14 år) Lätt Grupp C;2;3;6622058;4;/go-to/?fmid=6622058;Gunnilse IS P2012 Röd;https://staticcdn.svenskfotboll.se/img/teamssm/11237.png;7;Utbynäs SK Röd;https://staticcdn.svenskfotboll.se/img/teamssm/9983.png;7;2-7;Hjällbovallen 2 Konstgräs;Hjällbovallen;Knattens väg 12, 424 32 Angered;Y;57.777950;12.017062;Göteborg;football
1;2026-05-01;14:00;131959;Div 2 Västra Götaland, herr 2026;2;4;6547470;4;/go-to/?fmid=6547470;IK Kongahälla;https://staticcdn.svenskfotboll.se/img/teamssm/9590.png;7;Landvetter IS;https://staticcdn.svenskfotboll.se/img/teamssm/10768.png;7;1-1;Kongevi 1 Konstgräs;Kongevi;Karebyvägen 4, 442 34 Kungälv;Y;57.878855;11.973468;1;football
1;2026-05-01;14:00;131820;Div 3 Sydvästra Götaland, herr 2026;2;4;6550982;4;/go-to/?fmid=6550982;Kinna IF;https://staticcdn.svenskfotboll.se/img/teamssm/10844.png;21;Vejby IF;https://staticcdn.svenskfotboll.se/img/teamssm/9206.png;14;1-5;Kunskapens Hus, konstgräs;Kunskapens Hus;Kunskapens hus, Varbergsvägen, Skene, Kinna, Marks kommun, Västra Götalands län, 511 56, Sverige;Y;57.497192;12.667653;1;football
8;2026-05-01;14:00;137161;P12år Blå;2;2;6737794;5;/go-to/?fmid=6737794;IF Centern Blå;https://staticcdn.svenskfotboll.se/img/teamssm/9527.png;8;Alets IK 2;https://staticcdn.svenskfotboll.se/img/teamssm/9531.png;8;-1--1;Kärlekens IP 2;Kärlekens IP;Kärlekens IP, Stenstorpsvägen, 302 30 Halmstad;Y;56.704171;12.857281;Halland;football
7;2026-05-01;14:00;133690;Pojkar 2017(9 år) Hisingen + Öckerö Grupp A Vår;2;2;6616527;5;/go-to/?fmid=6616527;Backatorp IF Röd;https://staticcdn.svenskfotboll.se/img/teamssm/11915.png;7;BK Häcken P2017 lag 1 Svart;https://staticcdn.svenskfotboll.se/img/teamssm/11080.png;7;-1--1;Lillhagsplan 11;Lillhagsplan;Lillhagsvägen, 422 57 Hisings Backa;Y;57.763300;11.956822;Göteborg;football
1;2026-05-01;14:00;131966;Div 1 Södra, dam 2026;3;4;6545793;4;/go-to/?fmid=6545793;Alingsås KIK;https://staticcdn.svenskfotboll.se/img/teamssm/8345.png;21;FC Rosengård 1917;https://staticcdn.svenskfotboll.se/img/teamssm/10662.png;14;2-0;Noltorpsvallen B Konstgräs;Noltorpsvallen;Noltorpsvallen, Mjörnstigen, Noltorp, Alingsås distrikt, Alingsås, Alingsås kommun, Västra Götalands län, 441 56, Sverige;Y;57.936860;12.515810;1;football
1;2026-05-01;14:00;131965;Div 1 Mellersta, dam 2026;3;4;6545671;4;/go-to/?fmid=6545671;Skultorps IF;https://staticcdn.svenskfotboll.se/img/teamssm/10298.png;21;IK Viljan Strängnäs;https://staticcdn.svenskfotboll.se/img/teamssm/9917.png;17;3-0;Orkanvallen A;Orkanvallen;Sjogerstadsvägen 12, 541 55 Skövde;Y;58.335524;13.818842;1;football
1;2026-05-01;14:00;129327;P19 Superettan Södra 2026;2;3;6561573;4;/go-to/?fmid=6561573;Varbergs BoIS FC;https://staticcdn.svenskfotboll.se/img/teamssm/7701.png;8;Landskrona BoIS;https://staticcdn.svenskfotboll.se/img/teamssm/9287.png;14;1-3;Påskbergsvallen;Påskbergsvallen;Påskbergsvallen, Kattegattsvägen, Mariedal, Sörse, Varberg, Varbergs kommun, Hallands län, 432 43, Sverige;Y;57.097747;12.265223;1;football
8;2026-05-01;14:00;133920;Division 5 Herr Södra Halland;2;4;6526833;4;/go-to/?fmid=6526833;Snöstorp Nyhem FF;https://staticcdn.svenskfotboll.se/img/teamssm/7704.png;8;Kornhult/Hishult FF;https://staticcdn.svenskfotboll.se/img/teamssm/7413.png;8;4-2;Skedalaheds IP 3;Skedalaheds IP;Skedalahed 114, 305 93 Halmstad;Y;56.686715;12.945246;Halland;football
1;2026-05-01;14:00;131957;Div 2 Norra Götaland, herr 2026;2;4;6547288;4;/go-to/?fmid=6547288;Skara FC;https://staticcdn.svenskfotboll.se/img/teamssm/7451.png;21;Grebbestads IF;https://staticcdn.svenskfotboll.se/img/teamssm/11276.png;28;3-1;Sparbanken Arena A;Sparbanken Arena;Sparbanken Arena, E 20, Vilans fritidsområde, Skara domkyrkodistrikt, Skara, Skara kommun, Västra Götalands län, 532 37, Sverige;Y;58.388258;13.461198;1;football
7;2026-05-01;14:00;133691;Pojkar 2017(9 år) Hisingen + Öckerö Grupp B Vår;2;2;6616767;5;/go-to/?fmid=6616767;Torslanda IK Röd;https://staticcdn.svenskfotboll.se/img/teamssm/10068.png;7;Lundby IF P2017 Röd;https://staticcdn.svenskfotboll.se/img/teamssm/11776.png;7;-1--1;Torslandavallen 41 Gräs;Torslandavallen;Torslanda Idrottsväg 17, 423 32 Torslanda;Y;57.718280;11.757490;Göteborg;football
8;2026-05-01;14:00;136530;P10år Röd Söder;2;2;6731309;5;/go-to/?fmid=6731309;Torup/Rydö FF;https://staticcdn.svenskfotboll.se/img/teamssm/7097.png;8;Hyltebruks IF;https://staticcdn.svenskfotboll.se/img/teamssm/11090.png;8;-1--1;Torulund A;Torulund;Jesperslundsvägen 1, 314 41 Torup;Y;56.963831;13.077385;Halland;football
7;2026-05-01;14:00;133826;Flickor 2017(9 år) Lerum+Partille+Öster Vår;3;2;6612878;5;/go-to/?fmid=6612878;Sävedalens IF F2017 Lejon;https://staticcdn.svenskfotboll.se/img/teamssm/9545.png;7;Lerums IS F2017 1;https://staticcdn.svenskfotboll.se/img/teamssm/10756.png;7;-1--1;Vallhamra Skola;Vallhamra Skola;Långåkern 7, 433 65 Sävedalen;Y;57.720856;12.076205;Göteborg;football
1;2026-05-01;14:00;131957;Div 2 Norra Götaland, herr 2026;2;4;6547290;4;/go-to/?fmid=6547290;Vänersborgs FK;https://staticcdn.svenskfotboll.se/img/teamssm/8626.png;21;Vänersborgs IF;https://staticcdn.svenskfotboll.se/img/teamssm/8627.png;21;1-2;Vänersvallen Nord;Vänersvallen;Gropbrovägen 4, 462 56 Vänersborg;Y;58.367442;12.323966;1;football
8;2026-05-01;14:00;133919;Division 5 Herr Norra Halland;2;4;6534674;4;/go-to/?fmid=6534674;Väröbacka GIF;https://staticcdn.svenskfotboll.se/img/teamssm/9478.png;8;Bua IF;https://staticcdn.svenskfotboll.se/img/teamssm/11508.png;8;2-1;Värö IP A;Värö IP;Värö idrottsplats, Ellickevägen, Limabacka, Varbergs kommun, Hallands län, 432 65, Sverige;Y;57.238901;12.184606;Halland;football
7;2026-05-01;14:00;133748;Flickor 2012-2013 Stor 9M9 Medel Gr. A Vår;3;3;6583800;4;/go-to/?fmid=6583800;Floda BoIF Blå;https://staticcdn.svenskfotboll.se/img/teamssm/11366.png;7;Jitex BK Lila;https://staticcdn.svenskfotboll.se/img/teamssm/7516.png;7;1-7;Åbyvallen 2 Konstgräs;Åbyvallen;Idrottsvägen 5, 431 62 Mölndal;Y;57.645363;12.002082;Göteborg;football
1;2026-05-01;14:00;129356;P16 Allsvenskan Mellersta 2026;2;3;6579591;4;/go-to/?fmid=6579591;Örgryte IS Fotboll;https://staticcdn.svenskfotboll.se/img/teamssm/12910.png;7;IF Elfsborg;https://staticcdn.svenskfotboll.se/img/teamssm/11429.png;21;1-3;Hammarviken Arena;ÖIS-gården;Korndalsvägen 3, 412 76 Göteborg;Y;57.675233;12.028495;1;football
7;2026-05-01;14:00;133667;Pojkar 2016(10 år) Grupp B Vår;2;2;6605581;5;/go-to/?fmid=6605581;Öjersjö IF P16 Vit;https://staticcdn.svenskfotboll.se/img/teamssm/7552.png;7;Romelanda UF P16;https://staticcdn.svenskfotboll.se/img/teamssm/10427.png;7;-1--1;Öjersjö IP 12 Konstgräs;Öjersjö IP;Tallmossevägen 9, 433 50 Öjersjö;Y;57.702889;12.149245;Göteborg;football
7;2026-05-01;14:15;133570;Pojkar 2009-2010(16-17 år) Svår Grupp A;2;3;6601980;4;/go-to/?fmid=6601980;Landvetter IS;https://staticcdn.svenskfotboll.se/img/teamssm/10768.png;7;Qviding FIF P17;https://staticcdn.svenskfotboll.se/img/teamssm/8089.png;7;1-1;Landvetter IP A-plan;Landvetter IP;Tahultsvägen 60, 438 35 Landvetter;Y;57.702382;12.203031;Göteborg;football
7;2026-05-01;14:30;133653;Pojkar 2015(11 år) Grupp K Vår;2;2;6604133;5;/go-to/?fmid=6604133;Lerums IS P15 vit 3;https://staticcdn.svenskfotboll.se/img/teamssm/10756.png;7;Bergums IF Vit;https://staticcdn.svenskfotboll.se/img/teamssm/11584.png;7;-1--1;Aspevallen B-plan;Aspevallen;Strandvägen 7, 443 31 Lerum;Y;57.768427;12.253218;Göteborg;football
7;2026-05-01;14:30;133670;Pojkar 2016(10 år) Grupp E Vår;2;2;6608526;5;/go-to/?fmid=6608526;Askims IK P2016 U10 Vit;https://staticcdn.svenskfotboll.se/img/teamssm/11617.png;7;Proletären FF;https://staticcdn.svenskfotboll.se/img/teamssm/10466.png;7;-1--1;Kobbegården 3 Konstgräs 7M7;Kobbegården;Stora Åvägen 1, 436 34 Askim;Y;57.639723;11.944383;Göteborg;football
1;2026-05-01;14:30;129327;P19 Superettan Södra 2026;2;3;6561681;4;/go-to/?fmid=6561681;Norrby IF;https://staticcdn.svenskfotboll.se/img/teamssm/10554.png;21;Östers IF;https://staticcdn.svenskfotboll.se/img/teamssm/9736.png;15;2-5;Ramnavallen konstgräs;Ramnavallen;Ramnavallen, Enandersgatan, Byttorp, Borås, Borås kommun, Västra Götalands län, 504 66, Sverige;Y;57.722541;12.919158;1;football
8;2026-05-01;14:30;136434;F10år Söder;3;2;6726492;5;/go-to/?fmid=6726492;BK Astrio Gul;https://staticcdn.svenskfotboll.se/img/teamssm/9529.png;8;HGH FC Blå;https://staticcdn.svenskfotboll.se/img/teamssm/9516.png;8;-1--1;Söndrums IP G;Söndrums IP;Söndrums Idrottsplats, Bäckagårdsvägen, Pålsbo, Bäckagård, Halmstad, Halmstads kommun, Hallands län, 302 91, Sverige;Y;56.670271;12.797138;Halland;football
21;2026-05-01;14:30;137554;Pojkar Div 11 Dalsjöfors;2;2;6775575;5;/go-to/?fmid=6775575;Sparsörs AIK;https://staticcdn.svenskfotboll.se/img/teamssm/10260.png;21;Fristads GoIF Grön;https://staticcdn.svenskfotboll.se/img/teamssm/11342.png;21;-1--1;Trollevi B;Trollevi;Hovalidsvägen 3, 513 50 Sparsör;Y;57.803403;13.013042;Västergötland;football
7;2026-05-01;14:45;136381;Pojkar 2013(13 år) Vår Medel Grupp F;2;3;6643756;4;/go-to/?fmid=6643756;Jonsereds IF;https://staticcdn.svenskfotboll.se/img/teamssm/9595.png;7;Qviding FIF 1;https://staticcdn.svenskfotboll.se/img/teamssm/8089.png;7;3-7;Jonsereds IP 11;Jonsereds IP;Jons väg 23, 433 75 Jonsered;Y;57.746215;12.169063;Göteborg;football
7;2026-05-01;14:45;133585;Pojkar 2012(14 år) Lätt Grupp A;2;3;6621872;4;/go-to/?fmid=6621872;Masthuggets BK Röd;https://staticcdn.svenskfotboll.se/img/teamssm/10643.png;7;IF Väster Grön;https://staticcdn.svenskfotboll.se/img/teamssm/9861.png;7;4-2;Majvallen 1 Konstgräs;Majvallen;Ekedalsgatan 20, 414 68 Göteborg;Y;57.689370;11.936171;Göteborg;football
21;2026-05-01;15:00;137582;Pojkar Div 13 Herrljunga;2;2;6778993;5;/go-to/?fmid=6778993;Främmestads IK Svart;https://staticcdn.svenskfotboll.se/img/teamssm/11338.png;21;Vedums AIS;https://staticcdn.svenskfotboll.se/img/teamssm/8631.png;21;-1--1;Bergevi IP C-plan;Bergevi IP;Främmestadsvägen 53, 465 97 Nossebro;Y;58.237928;12.680546;Västergötland;football
21;2026-05-01;15:00;137528;Pojkar Div 9 Herrljunga;2;2;6773953;5;/go-to/?fmid=6773953;Floby-Grolanda IF Svart;https://staticcdn.svenskfotboll.se/img/teamssm/13639.png;21;Alingsås IF FF Vit;https://staticcdn.svenskfotboll.se/img/teamssm/12595.png;21;-1--1;Björkåsen C;Björkåsen;Björkåsen Grolanda IF,521 55 Grolanda;Y;58.075979;13.384854;Västergötland;football
21;2026-05-01;15:00;136664;Pojkar Div 6 Borås;2;3;6721573;4;/go-to/?fmid=6721573;Byttorps IF Grön;https://staticcdn.svenskfotboll.se/img/teamssm/11498.png;21;Mariedals IK Blå;https://staticcdn.svenskfotboll.se/img/teamssm/10652.png;21;5-3;Byttorps IP A;Byttorps IP;Byttorps idrottsplats, Klingarevägen, Byttorp, Borås, Borås kommun, Västra Götalands län, 504 65, Sverige;Y;57.724228;12.900785;Västergötland;football
1;2026-05-01;15:00;131957;Div 2 Norra Götaland, herr 2026;2;4;6547287;4;/go-to/?fmid=6547287;Lidköpings FK;https://staticcdn.svenskfotboll.se/img/teamssm/8704.png;21;Motala AIF FK;https://staticcdn.svenskfotboll.se/img/teamssm/7557.png;24;0-3;Framnäs IP A-plan;Framnäs IP;Framnäsvägen 2, 531 60 Lidköping;Y;58.510161;13.145975;1;football
1;2026-05-01;15:00;133302;F17 Allsvenskan Södra 2026;3;3;6577409;4;/go-to/?fmid=6577409;Halmstads BK;https://staticcdn.svenskfotboll.se/img/teamssm/9517.png;8;IFK Norrköping FK;https://staticcdn.svenskfotboll.se/img/teamssm/10981.png;24;1-2;Halmstad Arena P2;Halmstad Arena;;Y;56.675943;12.888513;1;football
21;2026-05-01;15:00;137605;Flickor Div 6 Ulricehamn;3;2;6782953;5;/go-to/?fmid=6782953;Länghem/Hillared/Sexdrega;https://staticcdn.svenskfotboll.se/img/teamssm/10688.png;21;Södra Vings IF;https://staticcdn.svenskfotboll.se/img/teamssm/10118.png;21;-1--1;Ingsvallen 7-manna;Ingsvallen;Ingestorpsvägen 10, 514 44 Länghem;Y;57.602900;13.238528;Västergötland;football
21;2026-05-01;15:00;135577;Herrar, Div 5 Sydöstra;2;4;6569885;4;/go-to/?fmid=6569885;Ulricehamns IFK;https://staticcdn.svenskfotboll.se/img/teamssm/7738.png;21;Stenstorps IF;https://staticcdn.svenskfotboll.se/img/teamssm/10238.png;21;2-0;Lassalyckan A-plan konstgräs;Lassalyckan;Lassalyckan, Ulricehamns distrikt, Ulricehamn, Ulricehamns kommun, Västra Götalands län, 523 33, Sverige;Y;57.785778;13.436509;Västergötland;football
7;2026-05-01;15:00;133754;Flickor 2012-2013 Liten 9M9 Lätt Gr. B Vår;3;3;6584239;4;/go-to/?fmid=6584239;Backatorp IF RÖD;https://staticcdn.svenskfotboll.se/img/teamssm/11915.png;7;GAIS;https://staticcdn.svenskfotboll.se/img/teamssm/9614.png;7;1-5;Lillhagsplan 11;Lillhagsplan;Lillhagsvägen, 422 57 Hisings Backa;Y;57.763300;11.956822;Göteborg;football
21;2026-05-01;15:00;137604;Flickor Div 6 Trollhättan;3;2;6782812;5;/go-to/?fmid=6782812;Trollhättan/Halvorstorp Grå;https://staticcdn.svenskfotboll.se/img/teamssm/8642.png;21;Upphärad/Sjuntorp/Åsaka;https://staticcdn.svenskfotboll.se/img/teamssm/8658.png;21;-1--1;Lyrfågel konstgräs;Lyrfågel;Hagtornsstigen 18, 461 43 Trollhättan;Y;57.673465;11.891683;Västergötland;football
21;2026-05-01;15:00;137619;Flickor Div 8 Alingsås;3;2;6784474;5;/go-to/?fmid=6784474;Alingsås IF FF;https://staticcdn.svenskfotboll.se/img/teamssm/12595.png;21;Skogsbygdens IF;https://staticcdn.svenskfotboll.se/img/teamssm/10306.png;21;-1--1;Mjörnvallen, D-plan;Mjörnvallen;Mjörnvallen, Mjörnstrandsvägen, Stadsskogen, Alingsås distrikt, Alingsås, Alingsås kommun, Västra Götalands län, 441 44, Sverige;Y;57.930328;12.504176;Västergötland;football
28;2026-05-01;15:00;135550;Div.5 Herr Västra Bohuslän-Dalsland;2;4;6591435;4;/go-to/?fmid=6591435;Torp GOIF;https://staticcdn.svenskfotboll.se/img/teamssm/10073.png;28;Hamburgsunds IF Lag 2;https://staticcdn.svenskfotboll.se/img/teamssm/11195.png;28;0-0;Rimmåsvallen;Rimmåsvallen;Rimmåsvallen, O 766, Gäddebräcka, Henån, Orust kommun, Västra Götalands län, 473 92, Sverige;Y;58.280870;11.714583;Bohuslän-Dalsland;football
7;2026-05-01;15:00;133161;Division 4B Dam;3;4;6533794;4;/go-to/?fmid=6533794;Lerums IS;https://staticcdn.svenskfotboll.se/img/teamssm/10756.png;7;Kärra kif;https://staticcdn.svenskfotboll.se/img/teamssm/10780.png;7;2-0;Rydsbergsplan 1 Konstgräs;Rydsbergsplan;Ekollonvägen 10, 443 50 Lerum;Y;57.758267;12.257120;Göteborg;football
1;2026-05-01;15:00;131957;Div 2 Norra Götaland, herr 2026;2;4;6547284;4;/go-to/?fmid=6547284;Ahlafors IF;https://staticcdn.svenskfotboll.se/img/teamssm/11662.png;7;IFK Skövde FK;https://staticcdn.svenskfotboll.se/img/teamssm/7848.png;21;2-3;Svenska Stenhus Arena 1 Gräs;Sjövallen IP;Sjövallavägen 111, 449 50 Alafors;Y;57.915942;12.107763;1;football
1;2026-05-01;15:00;135382;P17 Div.1 2026 Nordvästra Götaland;2;3;6575106;4;/go-to/?fmid=6575106;Ljungskile SK Herrfotboll;https://staticcdn.svenskfotboll.se/img/teamssm/13211.png;28;Ytterby IS;https://staticcdn.svenskfotboll.se/img/teamssm/9832.png;7;3-2;Skarsjövallen Konstgräs;Skarsjövallen;Skarsjövallen, Skarsjövägen, Ljungskile, Ljungs distrikt, Uddevalla kommun, Västra Götalands län, 459 30, Sverige;Y;58.216505;11.945076;1;football
21;2026-05-01;15:00;136678;Pojkar Div 7 Vänersborg;2;3;6722556;4;/go-to/?fmid=6722556;Vallens IF;https://staticcdn.svenskfotboll.se/img/teamssm/8496.png;28;Bjärke;https://staticcdn.svenskfotboll.se/img/teamssm/10266.png;21;11-2;Stora Höga IP Konstgräs;Stora Höga IP;Stora Höga, Stenungsunds kommun, Västra Götalands län, 444 60, Sverige;Y;58.014336;11.828450;Västergötland;football
8;2026-05-01;15:00;136547;F12år Vit;3;2;6710658;5;/go-to/?fmid=6710658;BK Astrio Gul;https://staticcdn.svenskfotboll.se/img/teamssm/9529.png;8;Halmstads BK Blå;https://staticcdn.svenskfotboll.se/img/teamssm/9517.png;8;-1--1;Söndrums IP F;Söndrums IP;Söndrums Idrottsplats, Bäckagårdsvägen, Pålsbo, Bäckagård, Halmstad, Halmstads kommun, Hallands län, 302 91, Sverige;Y;56.670271;12.797138;Halland;football
21;2026-05-01;15:00;135572;Herrar, Div 4 Västra;2;4;6567731;4;/go-to/?fmid=6567731;Trollhättans BoIS;https://staticcdn.svenskfotboll.se/img/teamssm/8643.png;21;Skepplanda BTK;https://staticcdn.svenskfotboll.se/img/teamssm/10314.png;21;4-3;Torsbovallen A-plan;Torsbovallen;Torsbovallen, Albertsvägen, Strömslund, Trollhättan, Trollhättans kommun, Västra Götalands län, 461 57, Sverige;Y;58.290529;12.270870;Västergötland;football
7;2026-05-01;15:00;133691;Pojkar 2017(9 år) Hisingen + Öckerö Grupp B Vår;2;2;6616766;5;/go-to/?fmid=6616766;Torslanda IK Svart;https://staticcdn.svenskfotboll.se/img/teamssm/10068.png;7;Lundby IF P2017 Vit;https://staticcdn.svenskfotboll.se/img/teamssm/11776.png;7;-1--1;Torslandavallen 41 Gräs;Torslandavallen;Torslanda Idrottsväg 17, 423 32 Torslanda;Y;57.718280;11.757490;Göteborg;football
21;2026-05-01;15:00;136743;Flickor Div 4 Falköping;3;3;6724740;4;/go-to/?fmid=6724740;Kinnarp-Slutarps IF;https://staticcdn.svenskfotboll.se/img/teamssm/8024.png;21;BK Trix;https://staticcdn.svenskfotboll.se/img/teamssm/7034.png;21;5-0;Tångavallen;Tångavallen;TÅNGAVALLEN, 521 73 Kinnarp;Y;58.080045;13.509465;Västergötland;football
21;2026-05-01;15:00;137556;Pojkar Div 11 Karlsborg;2;2;6775870;5;/go-to/?fmid=6775870;Mariestads BK Vit;https://staticcdn.svenskfotboll.se/img/teamssm/8679.png;21;IFK Mariestad Blå;https://staticcdn.svenskfotboll.se/img/teamssm/8286.png;21;-1--1;Vänershofs IP B;Vänershofs IP;Östra Järnvägsgatan 59, 542 33 Mariestad;Y;58.704735;13.837044;Västergötland;football
21;2026-05-01;15:00;135590;Damer, Div 4 Östra;3;4;6580525;4;/go-to/?fmid=6580525;Ulvåkers IF U;https://staticcdn.svenskfotboll.se/img/teamssm/10002.png;21;Hörnebo SK;https://staticcdn.svenskfotboll.se/img/teamssm/11036.png;21;0-6;Åbrovallen A;Åbrovallen;Åbrovallen, 549 94 Skövde;Y;58.470763;13.909592;Västergötland;football
7;2026-05-01;15:00;133825;Flickor 2017(9 år) Centrum+Härryda+Mölndal+Väster Grupp B Vår;3;2;6613607;5;/go-to/?fmid=6613607;IF Väster F2017;https://staticcdn.svenskfotboll.se/img/teamssm/9861.png;7;Näsets SK Flickor 2017 F17 lag 1;https://staticcdn.svenskfotboll.se/img/teamssm/10510.png;7;-1--1;Önneredsplan 2;Önneredsplan;Ersåsgatan 2, 421 59 Västra Frölunda;Y;57.637219;11.884878;Göteborg;football
7;2026-05-01;15:15;133668;Pojkar 2016(10 år) Grupp C Vår;2;2;6606266;5;/go-to/?fmid=6606266;Älvsborg FF 1;https://staticcdn.svenskfotboll.se/img/teamssm/9622.png;7;SG Ruddalen IF P16 Blå;https://staticcdn.svenskfotboll.se/img/teamssm/11284.png;7;-1--1;Hagenplan 11;Hagenplan;Hagens Prästväg 4, 426 74 Västra Frölunda;Y;57.674967;11.882285;Göteborg;football
28;2026-05-01;15:30;135695;BDFF P13-14 Blå Norra;2;3;6652789;4;/go-to/?fmid=6652789;Eds FF P födda -13;https://staticcdn.svenskfotboll.se/img/teamssm/11441.png;28;IFK Strömstad 9v9;https://staticcdn.svenskfotboll.se/img/teamssm/10963.png;28;0-8;Bergslätt;Bergslätt;Bergslätt, Ed, Dals-Eds kommun, Västra Götalands län, 668 31, Sverige;Y;58.910123;11.912789;Bohuslän-Dalsland;football
7;2026-05-01;16:00;133602;Pojkar 2013(13 år) Vår Lätt Grupp B;2;3;6643133;4;/go-to/?fmid=6643133;Serbiska KIF Semberija Göteborg 2;https://staticcdn.svenskfotboll.se/img/teamssm/7595.png;7;Hisingsbacka FC Svart;https://staticcdn.svenskfotboll.se/img/teamssm/11138.png;7;5-7;Bergsjövallen 21 Konstgräs;Bergsjövallen;Sjustjärnan 20, 415 51 Göteborg;Y;57.750377;12.057010;Göteborg;football
21;2026-05-01;16:00;137592;Pojkar Div 13 Ulricehamn;2;2;6780064;5;/go-to/?fmid=6780064;Gånghester/Målsryd Orange;https://staticcdn.svenskfotboll.se/img/teamssm/8709.png;21;Ulricehamns FF Svart;https://staticcdn.svenskfotboll.se/img/teamssm/14809.png;21;-1--1;Engvallen, Gånghester;Engvallen;Engvallen, Idrottsvägen, Gånghester, Borås, Borås kommun, Västra Götalands län, 507 70, Sverige;Y;57.690630;13.024083;Västergötland;football
21;2026-05-01;16:00;136529;Flickor Div 3 Trollhättan;3;3;6710780;4;/go-to/?fmid=6710780;Wargön/Vänersborg;https://staticcdn.svenskfotboll.se/img/teamssm/9843.png;21;Vårgårda IK;https://staticcdn.svenskfotboll.se/img/teamssm/9882.png;21;1-0;Hallevi IP, Wargön C-plan;Hallevi IP;Nordkroksvägen 85, 468 33 Vargön;Y;58.366825;12.400851;Västergötland;football
8;2026-05-01;16:00;137161;P12år Blå;2;2;6737804;5;/go-to/?fmid=6737804;IF Centern Vit;https://staticcdn.svenskfotboll.se/img/teamssm/9527.png;8;IF Böljan Falkenberg Vit;https://staticcdn.svenskfotboll.se/img/teamssm/9528.png;8;-1--1;Kärlekens IP 2;Kärlekens IP;Kärlekens IP, Stenstorpsvägen, 302 30 Halmstad;Y;56.704171;12.857281;Halland;football
21;2026-05-01;16:00;136524;Flickor Div 2 Skövde;3;3;6715379;4;/go-to/?fmid=6715379;Råda BK Grön;https://staticcdn.svenskfotboll.se/img/teamssm/10400.png;21;Lidköpings FK;https://staticcdn.svenskfotboll.se/img/teamssm/8704.png;21;0-0;Rådavallen A-plan;Rådavallen;Rådavallen, Vattenledningsvägen, Råda, Råda distrikt, Lidköpings kommun, Västra Götalands län, 531 59, Sverige;Y;58.499337;13.102725;Västergötland;football
7;2026-05-01;16:00;133702;Pojkar 2017(9 år) Hisingen + Öckerö Grupp C Vår;2;2;6616971;5;/go-to/?fmid=6616971;Torslanda IK Vit;https://staticcdn.svenskfotboll.se/img/teamssm/10068.png;7;Hönö IS P17;https://staticcdn.svenskfotboll.se/img/teamssm/11038.png;7;-1--1;Torslandavallen 41 Gräs;Torslandavallen;Torslanda Idrottsväg 17, 423 32 Torslanda;Y;57.718280;11.757490;Göteborg;football
28;2026-05-01;16:00;136093;Div.6 Herr Bohuslän-Dalsland 2026 Norra;2;4;6596616;4;/go-to/?fmid=6596616;Tösse IF;https://staticcdn.svenskfotboll.se/img/teamssm/10012.png;28;Bengtsfors IF Lag 2;https://staticcdn.svenskfotboll.se/img/teamssm/8494.png;28;1-2;Tössevallen;Tössevallen;Frillsätersvägen 3, 662 98 Tösse;Y;58.973375;12.637558;Bohuslän-Dalsland;football
21;2026-05-01;16:00;136743;Flickor Div 4 Falköping;3;3;6724743;4;/go-to/?fmid=6724743;IFK Värsås;https://staticcdn.svenskfotboll.se/img/teamssm/10948.png;21;Falköpings KIK Vit;https://staticcdn.svenskfotboll.se/img/teamssm/8721.png;21;2-3;Värsås IP B-plan;Värsås IP;Värsås, Skövde kommun, Västra Götalands län, 541 78, Sverige;Y;58.349996;14.049270;Västergötland;football
21;2026-05-01;16:00;135573;Herrar, Div 4 Östra;2;4;6567865;4;/go-to/?fmid=6567865;Götene IF;https://staticcdn.svenskfotboll.se/img/teamssm/8707.png;21;Ekedalens SK;https://staticcdn.svenskfotboll.se/img/teamssm/11433.png;21;3-0;Västerby IP Konstgräs;Västerby IP;Västerby idrottsplats, Hökgatan, Götene distrikt, Götene, Götene kommun, Västra Götalands län, 533 33, Sverige;Y;58.525750;13.479589;Västergötland;football
8;2026-05-01;16:00;137665;P13år Röd Norra;2;3;6779657;4;/go-to/?fmid=6779657;IFK Fjärås Röd;https://staticcdn.svenskfotboll.se/img/teamssm/9511.png;8;Lerkils IF 2;https://staticcdn.svenskfotboll.se/img/teamssm/10757.png;8;7-1;Ögärdets IP B1;Ögärdets IP;Klövervägen 2A, 439 71 Fjärås;Y;57.459731;12.184603;Halland;football
7;2026-05-01;16:00;133599;Pojkar 2013(13 år) Vår Medel Grupp E;2;3;6642875;4;/go-to/?fmid=6642875;Öjersjö IF 2;https://staticcdn.svenskfotboll.se/img/teamssm/7552.png;7;Södra Skärgårdens IK(SSIK)/Donsö I.S/Styrsö BK/Vrångö IF;https://staticcdn.svenskfotboll.se/img/teamssm/9631.png;7;3-2;Öjersjö IP 12 Konstgräs;Öjersjö IP;Tallmossevägen 9, 433 50 Öjersjö;Y;57.702889;12.149245;Göteborg;football
7;2026-05-01;16:30;133668;Pojkar 2016(10 år) Grupp C Vår;2;2;6606267;5;/go-to/?fmid=6606267;Älvsborg FF 2;https://staticcdn.svenskfotboll.se/img/teamssm/9622.png;7;SG Ruddalen IF P16 Gul;https://staticcdn.svenskfotboll.se/img/teamssm/11284.png;7;-1--1;Hagenplan 11;Hagenplan;Hagens Prästväg 4, 426 74 Västra Frölunda;Y;57.674967;11.882285;Göteborg;football
21;2026-05-01;16:30;136514;Pojkar Div 4 Trollhättan;2;3;6708970;4;/go-to/?fmid=6708970;Vänersborgs IF;https://staticcdn.svenskfotboll.se/img/teamssm/8627.png;21;Edet FK;https://staticcdn.svenskfotboll.se/img/teamssm/8683.png;21;2-2;Vänersvallen Nord;Vänersvallen;Gropbrovägen 4, 462 56 Vänersborg;Y;58.367442;12.323966;Västergötland;football
7;2026-05-01;16:45;133572;Pojkar 2009-2010(16-17 år) Medel Grupp B;2;3;6601734;4;/go-to/?fmid=6601734;IK Kongahälla;https://staticcdn.svenskfotboll.se/img/teamssm/9590.png;7;Jonsereds IF P2010 Gul;https://staticcdn.svenskfotboll.se/img/teamssm/9595.png;7;1-3;Kongevi 1 Konstgräs;Kongevi;Karebyvägen 4, 442 34 Kungälv;Y;57.878855;11.973468;Göteborg;football
7;2026-05-01;16:45;133151;Division 5B Herr;2;4;6532456;4;/go-to/?fmid=6532456;SK Argo;https://staticcdn.svenskfotboll.se/img/teamssm/9645.png;7;Pushers BK;https://staticcdn.svenskfotboll.se/img/teamssm/9563.png;7;4-1;Majvallen 1 Konstgräs;Majvallen;Ekedalsgatan 20, 414 68 Göteborg;Y;57.689370;11.936171;Göteborg;football
21;2026-05-01;17:00;137580;Pojkar Div 13 Falköping;2;2;6778202;5;/go-to/?fmid=6778202;Floby-Grolanda IF;https://staticcdn.svenskfotboll.se/img/teamssm/13639.png;21;IFK Falköping FF;https://staticcdn.svenskfotboll.se/img/teamssm/7190.png;21;-1--1;Björkåsen C;Björkåsen;Björkåsen Grolanda IF,521 55 Grolanda;Y;58.075979;13.384854;Västergötland;football
21;2026-05-01;17:00;135589;Damer, Div 4 Västra;3;4;6580216;4;/go-to/?fmid=6580216;Hemsjö IF;https://staticcdn.svenskfotboll.se/img/teamssm/11154.png;21;Wargöns IK;https://staticcdn.svenskfotboll.se/img/teamssm/9843.png;21;1-6;Östlyckevallen;Brogårdsvallen;Brogårdsvallen, Mångatan, Östlyckan, Alingsås distrikt, Alingsås, Alingsås kommun, Västra Götalands län, 441 35, Sverige;Y;57.931561;12.549578;Västergötland;football
21;2026-05-01;17:00;136516;Pojkar Div 5 Lidköping;2;3;6709695;4;/go-to/?fmid=6709695;IFK Falköping FF Vit;https://staticcdn.svenskfotboll.se/img/teamssm/7190.png;21;Råda BK Grön;https://staticcdn.svenskfotboll.se/img/teamssm/10400.png;21;2-1;Dotorpsplan A;Dotorpsplan;Dotorpsgatan 70, 521 33 Falköping;Y;58.174328;13.562701;Västergötland;football
21;2026-05-01;17:00;135573;Herrar, Div 4 Östra;2;4;6567881;4;/go-to/?fmid=6567881;IFK Tidaholm;https://staticcdn.svenskfotboll.se/img/teamssm/10959.png;21;IFK Hjo;https://staticcdn.svenskfotboll.se/img/teamssm/11007.png;21;0-0;Tidavallen A-plan;Tidavallen;Tidavallen, Malmhultsvägen, Siggestorp, Tidaholm, Tidaholms kommun, Västra Götalands län, 522 37, Sverige;Y;58.171031;13.957982;Västergötland;football
21;2026-05-01;17:00;136518;Pojkar Div 5 Skövde;2;3;6710072;4;/go-to/?fmid=6710072;Ulvåkers IF;https://staticcdn.svenskfotboll.se/img/teamssm/10002.png;21;BK Trix/Mölltorp/Brevik;https://staticcdn.svenskfotboll.se/img/teamssm/7034.png;21;0-3;Åbrovallen A;Åbrovallen;Åbrovallen, 549 94 Skövde;Y;58.470763;13.909592;Västergötland;football
7;2026-05-01;17:00;133586;Pojkar 2012(14 år) Svår Grupp A;2;3;6622149;4;/go-to/?fmid=6622149;Örgryte IS Fotboll Akademi;https://staticcdn.svenskfotboll.se/img/teamssm/12910.png;7;Torslanda IK Lag 1;https://staticcdn.svenskfotboll.se/img/teamssm/10068.png;7;6-5;Hammarviken Arena;ÖIS-gården;Korndalsvägen 3, 412 76 Göteborg;Y;57.675233;12.028495;Göteborg;football
8;2026-05-01;17:45;137177;P11år Röd södra;2;2;6736342;5;/go-to/?fmid=6736342;Snöstorp Nyhem FF;https://staticcdn.svenskfotboll.se/img/teamssm/7704.png;8;IF Leikin Vit;https://staticcdn.svenskfotboll.se/img/teamssm/9503.png;8;-1--1;Skedalaheds IP 3;Skedalaheds IP;Skedalahed 114, 305 93 Halmstad;Y;56.686715;12.945246;Halland;football
8;2026-05-01;18:00;133918;Division 4 Herr Halland;2;4;6526429;4;/go-to/?fmid=6526429;Arvidstorps IK;https://staticcdn.svenskfotboll.se/img/teamssm/9530.png;8;Lerkils IF;https://staticcdn.svenskfotboll.se/img/teamssm/10757.png;8;0-2;AIK-vallen A;AIK-vallen;AIK-vallen, Solhagavägen, Arvidstorp, Falkenberg, Falkenbergs kommun, Hallands län, 311 39, Sverige;Y;56.914829;12.479541;Halland;football
21;2026-05-01;18:00;136519;Pojkar Div 5 Trollhättan;2;3;6710384;4;/go-to/?fmid=6710384;Gerdskens BK Vit;https://staticcdn.svenskfotboll.se/img/teamssm/8712.png;21;Trollhättans BoIS;https://staticcdn.svenskfotboll.se/img/teamssm/8643.png;21;1-0;Gerdskenvallen A-plan;Gerdskenvallen;Gerdskenvallen, Örnvägen 9, 441 40 Alingsås;Y;57.921454;12.538694;Västergötland;football
21;2026-05-01;18:00;135581;Herrar, Div 6 Skövde;2;4;6580798;4;/go-to/?fmid=6580798;Igelstorps IK;https://staticcdn.svenskfotboll.se/img/teamssm/10932.png;21;Tidans IF;https://staticcdn.svenskfotboll.se/img/teamssm/10094.png;21;5-0;Igelvallen A;Igelvallen;Igelvallen, Stationsvägen, Sventorp, Igelstorp, Skövde kommun, Västra Götalands län, 549 77, Sverige;Y;58.396997;13.981672;Västergötland;football
28;2026-05-01;18:00;136129;Div.4 Dam Bohuslän-Dalsland;3;4;6602386;4;/go-to/?fmid=6602386;Munkedals IF;https://staticcdn.svenskfotboll.se/img/teamssm/10611.png;28;IFK Strömstad;https://staticcdn.svenskfotboll.se/img/teamssm/10963.png;28;2-1;Sparplan Hällevadsholm;Sjövallen;Strandvägen 1, 450 53 Hällevadsholm;Y;58.579371;11.534672;Bohuslän-Dalsland;football
21;2026-05-01;18:00;136755;Flickor Div 5 Trollhättan;3;3;6726107;4;/go-to/?fmid=6726107;Trollhättans BoIS;https://staticcdn.svenskfotboll.se/img/teamssm/8643.png;21;IFK Trollhättan;https://staticcdn.svenskfotboll.se/img/teamssm/8696.png;21;2-3;Torsbovallen Ollevi 1;Torsbovallen;Torsbovallen, Albertsvägen, Strömslund, Trollhättan, Trollhättans kommun, Västra Götalands län, 461 57, Sverige;N;58.290529;12.270870;Västergötland;football
21;2026-05-01;18:30;137555;Pojkar Div 11 Falköping;2;2;6775731;5;/go-to/?fmid=6775731;IFK Falköping FF Blå/Vit;https://staticcdn.svenskfotboll.se/img/teamssm/7190.png;21;Kinnarp-Slutarps IF Blå;https://staticcdn.svenskfotboll.se/img/teamssm/8024.png;21;-1--1;Dotorpsplan C;Dotorpsplan;Dotorpsgatan 70, 521 33 Falköping;Y;58.174328;13.562701;Västergötland;football
7;2026-05-01;18:30;133746;Flickor 2010-2011 Medel Grupp B;3;3;6585518;4;/go-to/?fmid=6585518;IFK Hindås F-10/11;https://staticcdn.svenskfotboll.se/img/teamssm/11008.png;7;Jitex BK Damjunior;https://staticcdn.svenskfotboll.se/img/teamssm/7516.png;7;2-3;Fagervallen 2 Konstgräs;Fagervallen;Sportvägen 9, 438 98 Hindås;Y;57.695964;12.435282;Göteborg;football
8;2026-05-01;18:30;133920;Division 5 Herr Södra Halland;2;4;6526832;4;/go-to/?fmid=6526832;Andersbergs IK;https://staticcdn.svenskfotboll.se/img/teamssm/6845.png;8;Sennans IF;https://staticcdn.svenskfotboll.se/img/teamssm/9495.png;8;0-1;Halmstad Arena P7;Halmstad Arena;;Y;56.675943;12.888513;Halland;football
7;2026-05-01;18:30;133571;Pojkar 2009-2010(16-17 år) Medel Grupp A;2;3;6601642;4;/go-to/?fmid=6601642;IF Mölndal Fotboll vit U17;https://staticcdn.svenskfotboll.se/img/teamssm/9569.png;7;IF Vardar/Makedonija;https://staticcdn.svenskfotboll.se/img/teamssm/9963.png;7;2-1;Åbyvallen 2 Konstgräs;Åbyvallen;Idrottsvägen 5, 431 62 Mölndal;Y;57.645363;12.002082;Göteborg;football
8;2026-05-01;18:30;137225;Utvecklingsserie Dam;3;4;6733026;4;/go-to/?fmid=6733026;IFK Fjärås;https://staticcdn.svenskfotboll.se/img/teamssm/9511.png;8;IF Böljan Falkenberg U;https://staticcdn.svenskfotboll.se/img/teamssm/9528.png;8;2-1;Ögärdets IP B;Ögärdets IP;Klövervägen 2A, 439 71 Fjärås;Y;57.459731;12.184603;Halland;football
21;2026-05-01;18:45;136520;Pojkar Div 5 U15 Västergötland;2;3;6709456;4;/go-to/?fmid=6709456;Trollhättans IF;https://staticcdn.svenskfotboll.se/img/teamssm/10051.png;21;Vårgårda IK;https://staticcdn.svenskfotboll.se/img/teamssm/9882.png;21;18-1;Skogshöjden Konstgräs;Skogshöjden;Skogshöjden, Trollhättan, Trollhättans kommun, Västra Götalands län, 461 73, Sverige;Y;58.320719;12.275242;Västergötland;football
